,categories,city,country,latitude,longitude,name,state
0,American Restaurant and Fast Food Restaurant,Thibodaux,US,29.814697,-90.814742,SONIC Drive In,LA
1,Fast Food Restaurants,Thibodaux,US,29.814697,-90.814742,SONIC Drive In,LA
2,Fast Food Restaurant,Pigeon Forge,US,35.803788,-83.580553,Taco Bell,TN
3,Fast Food,Pigeon Forge,US,35.782339,-83.551408,Arby's,TN
4,Fast Food Restaurant,Morrow,US,33.562738,-84.321143,Steak 'n Shake,GA
5,Fast Food Restaurant,Detroit,US,42.368823,-83.138251,Wendy's,MI
6,Fast Food Restaurant,Detroit,US,42.416819,-83.180444,Burger King,MI
7,Fast Food,Oceanside,US,33.205722,-117.288645,Chipotle Mexican Grill,CA
8,Fast Food Restaurants,Riverhead,US,40.937359,-72.650142,7-Eleven,NY
9,Fast Food Restaurant,Monahans,US,31.580721,-102.891455,Dairy Queen,TX
10,Fast Food Restaurant and Ice Cream Shop,Mabank,US,32.36602,-96.103364,Dairy Queen,TX
11,Ice Cream Shop and Fast Food Restaurant,Missouri City,US,29.570079,-95.568166,Dairy Queen,TX
12,Fast Food Restaurant,Akron,US,41.005682,-81.555774,Mr. Hero,OH
13,Fast Food Restaurants,Eastland,US,32.401088,-98.790162,Golden Chick,TX
14,Fast Food Restaurant,Azusa,US,34.133291,-117.924566,Carl's Jr,CA
15,Fast Food Restaurants,Summerville,US,33.026572,-80.169733,Checkers,SC
16,Fast Food,Oregon,US,41.627298,-83.502436,Rally's,OH
17,Fast Food,Los Angeles,US,33.955923,-118.396443,Togo's,CA
18,Fast Food Restaurants,Pearl,US,32.282328,-90.11677,Rally's,MS
19,Fast Food Restaurant,Grand Rapids,US,42.91147,-85.56812,Checkers,MI
20,Fast Food Restaurant,Shelbyville,US,39.523704,-85.743659,Rally's,IN
21,Fast Food,Brooklyn,US,40.685506,-73.914457,Checkers,NY
22,Fast Food Restaurants,Augusta,US,33.475292,-81.995946,Checkers,GA
23,Fast Food Restaurant,Detroit,US,42.400037,-83.21574,Checkers,MI
24,Fast Food Restaurants,Arlington,US,42.405651,-71.14212,Little Q Hot Pot,MA
25,Fast Food,Schenectady,US,42.79792,-73.924364,McDonald's,NY
26,Fast Food Restaurant,Kingston,US,41.967079,-73.988583,McDonald's,NY
27,Fast Food Restaurant,New York,US,40.757558,-73.981671,McDonald's,NY
28,Fast Food Restaurant,New York,US,40.718943,-73.988306,McDonald's,NY
29,Fast Food Restaurants,Uniondale,US,40.709646,-73.591453,McDonald's,NY
30,Fast Food Restaurant,Jericho,US,40.780233,-73.55934,McDonald's,NY
31,Fast Food,Jericho,US,40.780233,-73.55934,McDonald's,NY
32,Fast Food Restaurants,Albany,US,42.716812,-73.809319,McDonald's,NY
33,Fast Food,Bronx,US,40.839569,-73.915927,McDonald's,NY
34,Fast Food,Schenectady,US,42.741061,-73.913673,McDonald's,NY
35,Fast Food Restaurants,Buffalo,US,42.857899,-78.825089,McDonald's,NY
36,Fast Food Restaurants,Tonawanda,US,43.021019,-78.878167,McDonald's,NY
37,Fast Food,Woburn,US,42.503903,-71.132748,McDonald's,MA
38,Fast Food Restaurant,Whitinsville,US,42.125526,-71.645913,McDonald's,MA
39,Fast Food,Wilmington,US,42.557448,-71.181499,McDonald's,MA
40,Fast Food,Webster,US,42.055826,-71.873999,McDonald's,MA
41,Fast Food,Waltham,US,42.376247,-71.241667,McDonald's,MA
42,Fast Food Restaurant,Townsend,US,42.650503,-71.662674,McDonald's,MA
43,Fast Food Restaurant,Walpole,US,42.157222,-71.243549,McDonald's,MA
44,Fast Food,Taunton,US,41.88896,-71.120789,McDonald's,MA
45,Fast Food,Springfield,US,42.12193,-72.584242,McDonald's,MA
46,Fast Food Restaurants,Springfield,US,42.091561,-72.579647,McDonald's,MA
47,Fast Food Restaurants,Springfield,US,42.111552,-72.603359,McDonald's,MA
48,Fast Food Restaurant,Springfield,US,42.095053,-72.512539,McDonald's,MA
49,Fast Food Restaurants,Springfield,US,42.142989,-72.48923,McDonald's,MA
50,Fast Food Restaurants,Spencer,US,42.23341,-72.012516,McDonald's,MA
51,Fast Food,Spencer,US,42.23341,-72.012516,McDonald's,MA
52,Fast Food Restaurant,Miami,US,25.754984,-80.368058,Five Guys,FL
53,Fast Food Restaurant and Mexican Restaurant,Wylie,US,33.007329,-96.554127,Taco Bell,TX
54,Fast Food Restaurant,Tyler,US,32.274786,-95.306757,Taco Bell,TX
55,Fast Food Restaurants,Columbia,US,38.964944,-92.336364,Burger King,MO
56,Fast Food Restaurant and Burger Joint,Savannah,US,32.070343,-81.101032,Wendy's,GA
57,Fast Food Restaurant and Burger Joint,Marietta,US,33.95111,-84.518962,Wendy's,GA
58,Fast Food Restaurants,McDonough,US,33.446887,-84.138326,Wendy's,GA
59,Fast Food Restaurant,Monroe,US,33.792748,-83.731443,Wendy's,GA
60,Fast Food Restaurants,Augusta,US,33.486344,-82.13351,Wendy's,GA
61,Fast Food Restaurant,Milledgeville,US,33.108582,-83.254192,Wendy's,GA
62,Fast Food Restaurant and Burger Joint,Loganville,US,33.880381,-83.939657,Wendy's,GA
63,Fast Food Restaurant,Loganville,US,33.839726,-83.905798,Wendy's,GA
64,Fast Food Restaurant,Lithonia,US,33.699522,-84.17274,Wendy's,GA
65,Fast food restaurants,Danvers,US,42.547923,-70.942014,Burger King,MA
66,Fast Food Restaurants,Springfield,US,42.140526,-72.50087,Boston Road Pizza,MA
67,Fast Food Restaurant,Ravenna,US,41.157059,-81.219054,McDonald's,OH
68,Fast Food Restaurant,Arlington,US,32.679467,-97.195027,Boston Market,TX
69,Fast Food Restaurants,Attleboro,US,41.92023235,-71.35787658,D'Angelo Grilled Sandwiches,MA
70,Fast Food,El Cajon,US,32.739923,-116.942156,Burger King,CA
71,Fast Food Restaurants,El Cajon,US,32.80827,-116.97137,Boston Market,CA
72,Fast Food Restaurant,El Cajon,US,32.80827,-116.97137,Boston Market,CA
73,Fast food restaurants,El Cajon,US,32.805945,-116.971542,Burger King,CA
74,Fast Food Restaurants,Willow Grove,US,40.170877,-75.127393,Nino's Pizzarama,PA
75,Fast Food Restaurant,Fontana,US,34.091528,-117.43637,Carl's Jr,CA
76,Fast Food,Encino,US,34.16469,-118.52474,Carl's Jr,CA
77,Fast food restaurants,Encinitas,US,33.051949,-117.260994,Burger King,CA
78,Fast Food Restaurant,Downey,US,33.93527552,-118.1238946,Carl's Jr,CA
79,Fast Food Restaurants,Downey,US,33.91684597,-118.1337577,Carl's Jr,CA
80,Fast Food Restaurants,San Diego,US,32.797188,-117.2525,Filippi's Pizza Grotto,CA
81,Fast food restaurants,Cypress,US,29.88081,-95.683922,Burger King,TX
82,Fast Food Restaurant and Burger Joint,Cypress,US,29.88081,-95.683922,Burger King,TX
83,Fast Food Restaurant,Pleasant Hill,US,37.946879,-122.060174,Boston Market,CA
84,Fast Food,Castro Valley,US,37.695437,-122.081735,Jack in the Box,CA
85,Fast Food,San Jose,US,37.315904,-121.977843,Round Table Pizza,CA
86,Fast Food Restaurants,Compton,US,33.894566,-118.220228,El Pollo Loco,CA
87,Fast Food Restaurant,Chula Vista,US,32.646857,-116.967527,Arby's,CA
88,Fast food restaurants,Chico,US,39.76117,-121.842187,Burger King,CA
89,Fast Food Restaurants,Arroyo Grande,US,35.1273,-120.598,In-N-Out Burger,CA
90,Fast Food Restaurants,Palm Desert,US,33.72118,-116.38791,Copper Oven Artisan Pizza,CA
91,Fast Food Restaurant,Canoga Park,US,34.218957,-118.58903,Carl's Jr,CA
92,Fast Food Restaurant,Capitola,US,36.975287,-121.963929,McDonald's,CA
93,Fast Food Restaurant,Camarillo,US,34.221478,-119.070243,Carl's Jr,CA
94,"Fast Food Restaurant, Mexican Restaurant, and Taco Place",Barstow,US,34.867566,-117.114747,Del Taco,CA
95,Fast Food Restaurant,Baldwin Park,US,34.077713,-117.996169,Del Taco,CA
96,Fast Food,La Puente,US,34.0422696,-117.9493495,Little Caesars Pizza,CA
97,Fast Food Restaurant,Bishop,US,37.365314,-118.39508,McDonald's,CA
98,Fast Food Restaurants,Americus,US,32.07128,-84.216974,McDonald's,GA
99,Fast Food Restaurant,Anderson,US,34.54701,-82.6319,Burger King,SC
100,Fast Food Restaurant,Alhambra,US,34.088183,-118.151437,Carl's Jr,CA
101,Fast Food Restaurants,Augusta,US,33.46734,-82.07989,Sbarro,GA
102,Fast Food,Neoga,US,39.321895,-88.451273,Casey's General Store,IL
103,Fast Food,Newton,US,38.983809,-88.161001,Casey's General Store,IL
104,Fast Food Restaurants,Chatsworth,US,34.23765,-118.58919,Chipotle Mexican Grill,CA
105,Fast Food Restaurants,Cedartown,US,34.017911,-85.253614,McDonald's,GA
106,Fast food restaurants,Glastonbury,US,41.726353,-72.617608,Burger King,CT
107,"American Restaurant, Sandwich Place, and Fast Food Restaurant",Glastonbury,US,41.720514,-72.614164,Boston Market,CT
108,Fast Food Restaurant,Campbellsville,US,37.346447,-85.337368,McDonald's,KY
109,Fast Food Restaurant,Campbellsville,US,37.357213,-85.323654,SUBWAY,KY
110,Fast food restaurants,Fairfield,US,38.259527,-122.062146,Burger King,CA
111,Fast Food Restaurants,Ashland,US,38.4791,-82.6411,Fat Patty's,KY
112,Fast Food Restaurants,Ashland,US,38.3887,-82.7156,Dairy Queen,KY
113,Fast Food Restaurants,Fort Pierce,US,27.4357,-80.326,Pizza Hut,FL
114,"Fast Food Restaurant, American Restaurant, and Sandwich Place",Brooksville,US,28.534187,-82.516103,Arby's,FL
115,Fast Food Restaurant,Hobe Sound,US,27.06168,-80.13746,McDonald's,FL
116,Burger Joint and Fast Food Restaurant Gulf Breeze,Navarre,US,30.403772,-86.85506,Culver's,FL
117,Fast food restaurants,Hialeah,US,25.867613,-80.266376,Burger King,FL
118,Fast Food,Hialeah,US,25.882938,-80.33868,Pizza Hut,FL
119,Fast Food,Haines City,US,28.125757,-81.64043,Dairy Queen,FL
120,Fast Food Restaurants,Saint Augustine,US,29.96174,-81.49109,Pizza Hut,FL
121,Fast Food Restaurant,Deltona,US,28.8829,-81.2413,KFC,FL
122,Fast food restaurants,DeFuniak Springs,US,30.68782,-86.12318,McDonald's,FL
123,Fast Food Restaurant,DeFuniak Springs,US,30.70032,-86.12317,SONIC Drive-In,FL
124,Fast Food Restaurants,DeFuniak Springs,US,30.68693,-86.12329,Whataburger,FL
125,"Fast Food Restaurant, Sandwich Place, and American Restaurant",Estero,US,26.432003,-81.789408,Arby's,FL
126,Fast Food Restaurants,Brandon,US,27.928097,-82.324836,Chick-Fil-A,FL
127,Fast Food Restaurant,Belle Glade,US,26.67511,-80.67,Taco Bell,FL
128,Fast Food Restaurant,Avon Park,US,27.596742,-81.494029,McDonald's,FL
129,Fast Food Restaurants,Wauchula,US,27.56904,-81.81521,Pizza Hut,FL
130,Fast Food,Apopka,US,28.68587218,-81.53919026,Firehouse Subs,FL
131,Fast Food Restaurant,Savannah,US,32.135603,-81.208243,Burger King,GA
132,Fast Food Restaurant,Arkansas City,US,37.08012,-97.03938,SONIC Drive-In,KS
133,Fast Food Restaurants,Dodge City,US,37.77885,-100.01663,McDonald's,KS
134,Fast Food Restaurants,Ankeny,US,41.704627,-93.580975,Burger King,IA
135,Fast Food Restaurant,Ankeny,US,41.704627,-93.580975,Burger King,IA
136,Fast Food Restaurants,Kahului,US,20.8874,-156.4698,Cupie's Drive-In,HI
137,"Fast Food Restaurant, American Restaurant, and Sandwich Place",Ames,US,42.02045,-93.60967,Chick-Fil-A,IA
138,Fast Food Restaurants,Ames,US,42.03511,-93.57344,Burger King,IA
139,Fast Food Restaurant,Ankeny,US,41.732374,-93.582329,Burger King,IA
140,Fast Food Restaurants,Boise,US,43.580339,-116.213106,Pizza Hut,ID
141,Fast food restaurants,Burlington,US,36.09503,-79.408,Burger King,NC
142,Fast Food Restaurants,Bettendorf,US,41.548648,-90.504798,Dairy Queen,IA
143,Fast Food Restaurant,Charlotte,US,35.16361,-80.96889,McDonald's,NC
144,Fast Food Restaurant,Hesperia,US,34.425812,-117.378018,Burger King,CA
145,Fast food restaurants,Hesperia,US,34.419638,-117.291579,Burger King,CA
146,Fast Food Restaurant,Hawthorne,US,33.899881,-118.361657,Del Taco,CA
147,Fast Food Restaurant,Granada Hills,US,34.264517,-118.526782,Del Taco,CA
148,Fast Food Restaurant,Dover,US,39.158375,-75.550267,Arby's,DE
149,Fast Food Restaurants,Dover,US,39.158375,-75.550267,Arby's,DE
150,Fast Food Restaurants,Fountain Inn,US,34.68534,-82.19727,McDonald's,SC
151,Fast Food Restaurant,Lebanon,US,40.33873,-76.447826,Burger King,PA
152,Fast Food Restaurants,Lebanon,US,40.31787,-76.42396,Chipotle Mexican Grill,PA
153,Fast Food Restaurants,Claymont,US,39.81718,-75.45715,Taco Bell,DE
154,Fast Food,Chandler,US,33.30628,-111.94409,Pizza Hut,AZ
155,Fast Food Restaurants,Plover,US,44.49541,-89.51668,McDonald's,WI
156,"Restaurant, Fast Food Restaurant, and Sandwich Place",Aurora,US,39.697205,-104.824323,Arby's,CO
157,Fast Food Restaurants,Energy,US,37.77743,-89.02603,Primo's Pizza,IL
158,Fast Food Restaurants,Pea Ridge,US,36.44176,-94.114426,Simple Simon's Pizza,AR
159,Fast Food Restaurants,Clarksville,US,36.594351,-87.287425,Arby's,TN
160,Fast Food Restaurants,Alliance,US,40.90199,-81.12966,Dairy Queen,OH
161,Fast Food Restaurants,Bryant,US,34.623,-92.50348,CASA Mexicana,AR
162,Fast Food Restaurant,Bryant,US,34.623419,-92.499052,Burger King,AR
163,Fast Food Restaurants,Flagstaff,US,35.192109,-111.624197,Burger King,AZ
164,Fast Food Restaurants,Brookings,US,44.31095,-96.77414,Arby's,SD
165,"Fast Food Restaurant, Sandwich Place, and American Restaurant",Brookings,US,44.31095,-96.77414,Arby's,SD
166,Fast Food,Apache Junction,US,33.41508,-111.57884,KFC,AZ
167,Fast Food Restaurants,Bluefield,US,37.28415,-81.25128,Burger King,WV
168,Fast Food Restaurants,Beckley,US,37.793559,-81.217557,Bob Evans,WV
169,Fast Food Restaurants,Beckley,US,37.790326,-81.210547,Pizza Hut,WV
170,Fast Food Restaurants,Highland Park,US,42.17114472,-87.82489848,Players Grill,IL
171,Fast Food Restaurants,Buckhannon,US,38.997749,-80.233242,Burger King,WV
172,Fast Food,Cody,US,44.51606,-109.08971,Arby's,WY
173,Fast Food Restaurant,Cody,US,44.51459,-109.05084,Burger King,WY
174,Fast Food Restaurants,Cheyenne,US,41.16767,-104.828636,Pizza Hut,WY
175,Fast Food Restaurants,Collierville,US,35.0492,-89.69907,Back Yard Burgers,TN
176,Fast Food Restaurants,Collierville,US,35.04561,-89.6942,Arby's,TN
177,Fast Food Restaurants,Casper,US,42.82804,-106.354802,Arby's,WY
178,Fast Food Restaurants,Cordova,US,35.175914,-89.792333,Arby's,TN
179,Fast Food Restaurants,Mobridge,US,45.53751,-100.43688,SUBWAY,SD
180,Fast Food,Defiance,US,41.303027,-84.361279,Arby's,OH
181,Fast Food Restaurants,Defiance,US,41.301426,-84.360818,Pizza Hut,OH
182,Fast Food Restaurants,Fairborn,US,39.783394,-84.006478,Pizza Hut,OH
183,Fast Food,Aberdeen,US,45.459587,-98.469823,Arby's,SD
184,Fast Food Restaurant,Blountville,US,36.524041,-82.312707,McDonald's,TN
185,Fast food restaurants,Blountville,US,36.534114,-82.390053,McDonald's,TN
186,Fast Food Restaurant,Blountville,US,36.541865,-82.33235,Arby's,TN
187,Fast Food,Blountville,US,36.541865,-82.33235,Arby's,TN
188,Fast Food Restaurants,Berea,US,37.568606,-84.311046,Burger King,KY
189,Fast Food Restaurants,East Liverpool,US,40.66428,-80.62041,Italo's Pizza,OH
190,Ice Cream Shop and Fast Food Restaurant,East Liverpool,US,40.62539,-80.59109,Dairy Queen,OH
191,Fast Food Restaurants,Lima,US,40.73101,-84.07296,Hunan Gardens,OH
192,Fast Food Restaurant,Circleville,US,39.58426871,-82.95390414,Burger King,OH
193,Fast food restaurants,Chardon,US,41.580901,-81.210168,Burger King,OH
194,Fast Food Restaurant,Bellefontaine,US,40.331939,-83.761451,Burger King,OH
195,Fast Food Restaurants,Broadview Heights,US,41.29553,-81.67674,Burger King,OH
196,Fast Food Restaurant,Broadview Heights,US,41.293022,-81.68467,Burger King,OH
197,Fast Food Restaurants,Chippewa Falls,US,44.92456,-91.38189,Toppers Pizza,WI
198,Fast Food Restaurants,Delavan,US,42.63089,-88.63918,Hernandez Mexican Restaurant,WI
199,Fast Food Restaurant,Delavan,US,42.627712,-88.621712,Culver's,WI
200,Fast food restaurants,Christiansburg,US,37.16537,-80.422283,Burger King,VA
201,Fast Food Restaurant,Christiansburg,US,37.166086,-80.422225,Arby's,VA
202,Fast Food Restaurant,Christiansburg,US,37.16537,-80.422283,Burger King,VA
203,Fast food restaurants,Farmville,US,37.289041,-78.397491,Burger King,VA
204,Fast Food Restaurants,Charlottesville,US,38.04129,-78.47775,Glorious Foods Gourmet to go & Catering,VA
205,Fast Food Restaurants,Gresham,US,45.50516,-122.41273,Little Caesars Pizza,OR
206,Fast Food Restaurants,El Paso,US,31.88498,-106.418612,Arby's,TX
207,Fast Food Restaurants,Wharton,US,29.33102,-96.09457,Pizza Hut,TX
208,Fast Food Restaurants,Denison,US,33.762134,-96.581587,Burger King,TX
209,Fast Food Restaurants,Penitas,US,26.243395,-98.4423,McDonald's,TX
210,Fast Food Restaurant,Eagle Pass,US,28.70574,-100.48395,Burger King,TX
211,Fast Food Restaurants,Del Rio,US,29.38843,-100.90521,Chick-Fil-A,TX
212,Fast Food Restaurant,Bryan,US,30.69488984,-96.36236943,Burger King,TX
213,Fast Food Restaurants,Cleburne,US,32.342149,-97.402765,Schlotzsky's,TX
214,"Restaurant, Fast Food Restaurant, and Sandwich Place",Burleson,US,32.563248,-97.322393,Arby's,TX
215,Fast Food Restaurant,Burleson,US,32.566362,-97.319315,Chick-Fil-A,TX
216,Fast Food Restaurant and Burger Joint,Bellaire,US,29.70529415,-95.4730184,Burger King,TX
217,Fast Food Restaurant,Abilene,US,32.405234,-99.764985,Arby's,TX
218,American Restaurant and Fast Food Restaurant,Beeville,US,28.421414,-97.756843,Golden Chick,TX
219,Fast Food Restaurants,Pettus,US,28.847141,-97.44154,Dairy Queen,TX
220,Fast Food Restaurants,Sinton,US,28.03704,-97.51219,Pizza Hut,TX
221,Fast Food Restaurants,Angleton,US,29.18105,-95.44666,Chicken Express,TX
222,Fast Food Restaurant and Playground,Flourtown,US,40.111177,-75.214144,McDonald's,PA
223,Fast Food,Chestertown,US,39.224652,-76.06993,Arby's,MD
224,Fast Food Restaurant,Chestertown,US,39.224652,-76.06993,Arby's,MD
225,Fast food restaurants,Alice,US,27.75366,-98.06131,Big House Burgers,TX
226,Fast Food,Orlando,US,28.44004,-81.4037,Arby's,FL
227,Fast food restaurants,Columbia,US,39.196116,-76.82101,McDonald's,MD
228,Fast Food Restaurant,Elkridge,US,39.208926,-76.724769,Burger King,MD
229,Fast Food,Fairless Hills,US,40.169035,-74.849233,Arby's,PA
230,"Fast Food Restaurant, American Restaurant, and Sandwich Place",Fairless Hills,US,40.169035,-74.849233,Arby's,PA
231,Fast Food Restaurants,Ephrata,US,40.164651,-76.154297,Arby's,PA
232,Fast Food Restaurants,Ottumwa,US,41.01903,-92.43745,Pizza Hut,IA
233,Fast Food,Abingdon,US,36.705143,-81.974501,Arby's,VA
234,Fast Food Restaurants,Abingdon,US,36.705143,-81.974501,Arby's,VA
235,"Sandwich Place, Pizza Place, and Fast Food Restaurant",Alexandria,US,38.78022,-77.07939,Jerry's Subs & Pizza,VA
236,Fast Food Restaurants,Alexandria,US,38.78022,-77.07939,Jerry's Subs & Pizza,VA
237,Fast Food Restaurants,Ebensburg,US,40.48025,-78.73658,Fox's Pizza Den,PA
238,Fast Food Restaurants,Ebensburg,US,40.47425,-78.74575,Burger King,PA
239,Fast Food Restaurant,Erie,US,42.092031,-80.084087,Arby's,PA
240,"American Restaurant, Fast Food Restaurant, and Sandwich Place",Erie,US,42.108355,-80.050799,Arby's,PA
241,Fast Food Restaurant,Florence,US,39.019712,-84.628729,Burger King,KY
242,Fast Food Restaurant and Burger Joint,Coopersburg,US,40.509286,-75.385827,Burger King,PA
243,Fast Food Restaurants,Clarion,US,41.20821,-79.36712,Pizza Pub,PA
244,Fast Food Restaurants,Canonsburg,US,40.26269,-80.13373,Grande Italian Restaurant,PA
245,Fast Food Restaurants,Canonsburg,US,40.28079,-80.08363,Pizza Hut,PA
246,Fast Food Restaurants,Berwick,US,41.049741,-76.252443,Burger King,PA
247,Fast Food Restaurants,Bethel Park,US,40.34341,-80.02729,Pizza Hut,PA
248,Fast Food Restaurant,Frankfort,US,38.178962,-84.894596,Burger King,KY
249,Fast Food,Seattle,US,47.69445,-122.34243,Pizza Hut,WA
250,Fast Food,Crawfordsville,US,40.0396,-86.9026,Arni's Crawfordsville,IN
251,"Fast Food Restaurant, American Restaurant, and Sandwich Place",Crawfordsville,US,40.021575,-86.903344,Arby's,IN
252,Fast Food Restaurants,Milwaukee,US,42.97331,-88.00821,Pizza Hut,WI
253,Fast Food Restaurants,Layton,US,41.07553,-111.95069,Arctic Circle,UT
254,Fast Food Restaurants,Goshen,US,41.591667,-85.855147,Pizza Hut,IN
255,Fast Food Restaurants,Gaffney,US,35.077732,-81.703527,Arby's,SC
256,Fast Food Restaurants,Elko,US,40.83757,-115.78954,Burger King,NV
257,Fast Food Restaurants,Elko,US,40.85103,-115.74498,Pizza Barn,NV
258,Fast food restaurants,Coram,US,40.869655,-72.999817,McDonald's,NY
259,Fast Food Restaurants,Laurel,US,39.095464,-76.837806,Jerry's Subs & Pizza,MD
260,Fast Food Restaurant,Brookhaven,US,31.579563,-90.459029,Burger King,MS
261,Fast Food Restaurants,Corning,US,42.1439,-77.0583,Rico's Pizza & Subs,NY
262,Fast Food Restaurants,Corning,US,42.13151,-77.03608,B's Pizza,NY
263,Fast food restaurants,Amityville,US,40.689896,-73.408119,Burger King,NY
264,Fast Food Restaurant,Pickens,US,34.884512,-82.70476,McDonald's,SC
265,Fast Food,Spartanburg,US,34.966901,-81.929552,McDonald's,SC
266,Fast Food Restaurant and Burger Joint,Gambrills,US,39.037925,-76.678372,Burger King,MD
267,Fast Food Restaurant,Red Springs,US,34.811406,-79.174756,McDonald's,NC
268,Fast Food Restaurants,Glen Cove,US,40.8672,-73.6307,Domino's Pizza,NY
269,Ice Cream Shop and Fast Food Restaurant,Van,US,32.499851,-95.596225,Dairy Queen,TX
270,Fast Food Restaurants,Van,US,32.499851,-95.596225,Dairy Queen,TX
271,Fast Food Restaurants,Tivoli,US,28.453429,-96.888108,Dairy Queen,TX
272,Fast Food,Rusk,US,31.802884,-95.148673,Dairy Queen,TX
273,Fast Food Restaurants,Borger,US,35.663865,-101.389964,Dairy Queen,TX
274,Fast Food Restaurant,San Marcos,US,29.689434,-97.667085,Dairy Queen,TX
275,Fast Food Restaurant,San Antonio,US,29.42306,-98.484173,Dairy Queen,TX
276,Ice Cream Shop and Fast Food Restaurant,San Antonio,US,29.351346,-98.458339,Dairy Queen,TX
277,Fast Food Restaurants,Virginia Beach,US,36.875281,-76.038915,Hardee's,VA
278,Fast Food Restaurants,Norfolk,US,36.869021,-76.291956,Hardee's,VA
279,Fast Food Restaurant,Richmond,US,37.585167,-77.496783,Hardee's,VA
280,Fast Food Restaurant,Roanoke,US,37.303452,-79.983783,Hardee's,VA
281,Fast Food Restaurant,Portsmouth,US,36.836845,-76.308136,Hardee's,VA
282,Fast Food Restaurant,Pulaski,US,37.048369,-80.759749,Hardee's,VA
283,Fast Food Restaurants,Norfolk,US,36.929187,-76.317875,Hardee's,VA
284,Fast Food Restaurant,Newport News,US,37.131199,-76.532961,Hardee's,VA
285,Fast Food Restaurant,Lynchburg,US,37.365812,-79.172249,Hardee's,VA
286,Fast Food Restaurant,Lawrenceville,US,36.752234,-77.852597,Hardee's,VA
287,Fast Food Restaurant,Lynchburg,US,37.412957,-79.173991,Hardee's,VA
288,Fast Food Restaurant,Meridian,US,43.590779,-116.365124,Port of Subs,ID
289,Fast Food,Las Vegas,US,36.121721,-115.243007,Port of Subs,NV
290,Fast Food,Las Vegas,US,36.1991,-115.281057,Port of Subs,NV
291,Fast Food,Las Vegas,US,36.14391,-115.295979,Port of Subs,NV
292,Fast Food Restaurants,Dayton,US,39.237101,-119.58641,Port of Subs,NV
293,Fast Food Restaurant,Utica,US,42.62877,-82.993912,Taco Bell,MI
294,Fast Food Restaurants,Ann Arbor,US,42.230907,-83.739813,Taco Bell,MI
295,Fast Food Restaurants,Bakersfield,US,35.398432,-119.109364,Taco Bell,CA
296,Fast Food Restaurants,Portage,US,41.575923,-87.173196,Dairy Queen,IN
297,Fast Food Restaurant,Evansville,US,38.040812,-87.540047,Dairy Queen,IN
298,Ice Cream Shop and Fast Food Restaurant Christian Park,Indianapolis,US,39.760374,-86.101163,Dairy Queen,IN
299,Fast Food Restaurant and Ice Cream Shop,Mishawaka,US,41.66294,-86.12615,Dairy Queen,IN
300,Fast Food Restaurant,Evansville,US,37.977571,-87.634586,Dairy Queen,IN
301,Fast Food Restaurants,North Manchester,US,41.016468,-85.759674,Dairy Queen,IN
302,Fast Food Restaurants,New Albany,US,38.346607,-85.797911,Dairy Queen,IN
303,Fast Food Restaurant,Wayne,US,42.283657,-83.363898,Taco Bell,MI
304,Fast Food Restaurants,Mattoon,US,39.481538,-88.364454,Dairy Queen,IL
305,Fast Food,Chicago,US,41.953301,-87.767849,Dairy Queen,IL
306,Fast Food Restaurant,El Paso,US,40.737017,-89.026139,Dairy Queen,IL
307,Fast Food Restaurant,Mahomet,US,40.191908,-88.401881,Dairy Queen,IL
308,Fast Food,Cambridge,US,42.389162,-71.11789,McDonald's,MA
309,Fast Food Restaurants,Boston,US,42.357,-71.057588,Milk Street Cafe,MA
310,Fast Food Restaurants,Boston,US,42.338242,-71.106394,McDonald's,MA
311,Fast Food Restaurant and Mexican Restaurant,Lincoln Park,US,42.25059,-83.195322,Taco Bell,MI
312,Fast Food,Massillon,US,40.80019,-81.511421,Taco Bell,OH
313,Fast Food,Kings Mountain,US,35.231412,-81.332652,Taco Bell,NC
314,Fast Food Restaurants,Pekin,US,40.566695,-89.653915,Dairy Queen,IL
315,Fast Food Restaurants,Peoria,US,40.738856,-89.602672,Dairy Queen,IL
316,Fast Food Restaurant,Gilbert,US,33.334671,-111.790032,Pei Wei,AZ
317,Fast Food Restaurant,Petersburg,US,40.008448,-89.848308,Dairy Queen,IL
318,Fast Food Restaurants,Decatur,US,39.819918,-88.883699,Dairy Queen,IL
319,Fast Food Restaurants,Cary,US,42.219047,-88.258381,Dairy Queen,IL
320,Fast Food Restaurants,Monmouth,US,40.914208,-90.648196,Dairy Queen,IL
321,Fast Food Restaurant,Marion,US,37.740923,-88.925396,Dairy Queen,IL
322,Fast Food Restaurants,Marion,US,37.740923,-88.925396,Dairy Queen,IL
323,Fast Food Restaurants,Columbus,US,39.987216,-83.044532,W.G. Grinders,OH
324,"Ice Cream Shop, Fast Food Restaurant, and Burger Joint",Los Angeles,US,34.136803,-118.215193,Foster's Freeze,CA
325,Fast Food,Polo,US,41.986872,-89.578918,Caseys Carry Out Pizza,IL
326,Fast Food Restaurants,McAlester,US,34.93126,-95.763988,Tastee Freez,OK
327,Fast Food Restaurant,Oklahoma City,US,35.609104,-97.529511,Taco Bueno,OK
328,Fast Food Restaurants,Lafayette,US,30.252668,-92.037149,McDonald's,LA
329,Fast Food Restaurants,Montrose,US,43.176212,-83.887437,McDonald's,MI
330,Fast Food Restaurant,Manassas,US,38.78166,-77.51244,Wendy's,VA
331,Fast Food Restaurant,Sylvania,US,41.715443,-83.698148,Jimmy John's,OH
332,Fast Food Restaurants,Cartersville,US,34.203844,-84.809281,Subway,GA
333,Fast Food Restaurants,Bowdon,US,33.538661,-85.251916,Subway,GA
334,Fast Food Restaurants,Macon,US,32.856549,-83.616455,Dairy Queen,GA
335,Fast Food Restaurants,Gainesville,US,34.228802,-83.864934,Dairy Queen,GA
336,Fast Food Restaurants,Warner Robins,US,32.618255,-83.618517,Dairy Queen,GA
337,Fast Food Restaurants,Albany,US,31.499616,-84.115596,Subway,GA
338,Fast Food Restaurant,Albany,US,31.620486,-84.220416,Subway,GA
339,Fast Food Restaurants,Barnesville,US,33.054774,-84.15625,Dairy Queen,GA
340,Fast Food Restaurant,North Augusta,US,33.572772,-81.938715,Dairy Queen,SC
341,Ice Cream Shop and Fast Food Restaurant,North Augusta,US,33.572772,-81.938715,Dairy Queen,SC
342,Fast Food,Pensacola,US,30.519652,-87.314643,Hardee's,FL
343,Fast Food Restaurants,Panama City,US,30.211082,-85.650126,Hardee's,FL
344,Fast Food,Atlanta,US,33.86021,-84.309952,Dairy Queen,GA
345,Fast Food,Atlanta,US,33.880324,-84.275398,Dairy Queen,GA
346,Fast Food Restaurant,Jonesboro,US,33.532392,-84.355959,Dairy Queen,GA
347,Fast Food,Atlanta,US,33.771188,-84.373631,Dairy Queen,GA
348,Fast Food Restaurants,Jacksonville,US,30.429273,-81.653066,Hardee's,FL
349,Fast Food Restaurants,Atlantic Beach,US,30.335676,-81.415375,Hardee's,FL
350,Fast food restaurants,Fort Walton Beach,US,30.44787,-86.638646,Hardee's,FL
351,Fast Food Restaurants,Graceville,US,30.968267,-85.510864,Hardee's,FL
352,Fast Food Restaurant,DeLand,US,29.053904,-81.324411,Hardee's,FL
353,Fast food restaurants,Harrington,US,38.9237,-75.56722,Hardee's,DE
354,Fast Food Restaurant,Chattahoochee,US,30.703743,-84.854535,Hardee's,FL
355,Fast Food Restaurant,Springdale,US,36.1825,-94.138655,Hardee's,AR
356,"Pizza Place, Fast Food Restaurant, and Italian Restaurant Preston Park",Roanoke,US,37.313592,-79.952038,Papa John's Pizza,VA
357,Fast Food Restaurant,Bangor,US,44.83564,-68.742387,Burger King,ME
358,"Pizza Place, Italian Restaurant, and Fast Food Restaurant",Daleville,US,37.41027,-79.913083,Papa John's Pizza,VA
359,Fast Food Restaurants,Dickinson,US,46.875699,-102.810832,Pizza Hut,ND
360,Fast Food Restaurant,Asheboro,US,35.6876,-79.82614,Burger King,NC
361,Fast Food Restaurant,Winston-Salem,US,36.069592,-80.334167,Cook Out,NC
362,Fast Food Restaurants,Saint Louis,US,38.615623,-90.221252,SUBWAY¬Æ,MO
363,Fast Food Restaurants,Eunice,US,30.48697,-92.42648,Krispy Krunchy Chicken,LA
364,Fast Food Restaurant,Festus,US,38.21353844,-90.40835567,Hardee's/red Burrito,MO
365,Fast Food,Florissant,US,38.8067,-90.297975,Arby's,MO
366,Fast Food Restaurants,Cape Girardeau,US,37.31071,-89.53989,Lacey's On The Hill Restaurant,MO
367,Fast Food Restaurants,Fairborn,US,39.779771,-84.050756,Dairy Queen,OH
368,Fast Food Restaurants,Akron,US,41.108993,-81.507567,Dairy Queen,OH
369,Ice Cream Shop and Fast Food Restaurant,New Philadelphia,US,40.492212,-81.444822,Dairy Queen,OH
370,Ice Cream Shop and Fast Food Restaurant,Cambridge,US,40.00481,-81.575932,Dairy Queen,OH
371,Fast Food Restaurants,Florence,US,34.18876,-79.82402,Arby's,SC
372,Fast Food Restaurant,Florence,US,34.166512,-79.763886,Arby's,SC
373,Fast Food Restaurant and Burger Joint,Derry,US,42.900371,-71.33503,Burger King,NH
374,Fast Food Restaurant,Rutland,US,43.618244,-72.957313,McDonald's,VT
375,Fast Food,Layton,US,41.077026,-111.973568,McDonald's,UT
376,Fast Food Restaurants,Enosburg Falls,US,44.913112,-72.796661,McDonald's,VT
377,Fast Food Restaurants,West Helena,US,34.549637,-90.65453,Pizza Pro,AR
378,Fast Food Restaurant,South Burlington,US,44.464893,-73.184211,McDonald's,VT
379,Fast Food,South Burlington,US,44.464893,-73.184211,McDonald's,VT
380,Fast Food Restaurants,South Burlington,US,44.437629,-73.210838,McDonald's,VT
381,Fast Food Restaurant,Essex Junction,US,44.507366,-73.086501,McDonald's,VT
382,Fast Food Restaurant,Colchester,US,44.503345,-73.1809,McDonald's,VT
383,Fast Food Restaurant,Adairsville,US,34.37653,-84.91442,Hardee's,GA
384,Fast Food Restaurant Fairpark,Salt Lake City,US,40.771496,-111.917532,McDonald's,UT
385,Fast Food Restaurants,Ogden,US,41.178295,-112.000468,McDonald's,UT
386,Fast Food Restaurant,Provo,US,40.250567,-111.662228,McDonald's,UT
387,Fast Food Restaurants,Veradale,US,47.664944,-117.197199,McDonald's,WA
388,Fast Food Restaurants,Brigham City,US,41.491076,-112.016097,McDonald's,UT
389,Fast Food Restaurants,Yelm,US,46.944589,-122.612408,McDonald's,WA
390,Fast Food Restaurant,Yelm,US,46.944589,-122.612408,McDonald's,WA
391,Fast Food Restaurants,Clarksburg,US,39.21248,-80.37987,Dairy Queen,WV
392,Fast Food Restaurants,Yakima,US,46.603108,-120.481796,McDonald's,WA
393,Fast Food Restaurant,Yakima,US,46.600036,-120.586846,McDonald's,WA
394,Fast Food,Yakima,US,46.600036,-120.586846,McDonald's,WA
395,Fast Food Restaurants,Walla Walla,US,46.056214,-118.346068,McDonald's,WA
396,Fast Food Restaurant,Woodland,US,45.910773,-122.746105,McDonald's,WA
397,Fast Food Restaurants,East Lansing,US,42.73332,-84.47609,Cottage Inn Pizza,MI
398,Fast Food,Los Angeles,US,34.02649,-118.19894,Little Caesars Pizza,CA
399,Fast Food Restaurants,Davison,US,43.017622,-83.517572,Burger King,MI
400,Fast food restaurants,Murray,US,36.6259,-88.3146,Culver's,KY
401,Fast Food Restaurants,Owensboro,US,37.750815,-87.111814,Papa John's Pizza,KY
402,Fast Food Restaurant,Rutherford,US,40.8278,-74.1011,Domino's Pizza,NJ
403,Fast Food Restaurant,Omaha,US,41.205168,-96.123583,Runza,NE
404,Fast Food Restaurants,Charlevoix,US,45.308895,-85.258745,Pizza Hut,MI
405,Fast Food Restaurant,Bellevue,US,41.153051,-95.918252,Runza,NE
406,Fast Food Restaurant,Fremont,US,41.435241,-96.497046,Runza,NE
407,Fast Food Restaurant,Norfolk,US,42.024188,-97.42652,Runza,NE
408,Fast Food Restaurant,Wahoo,US,41.205559,-96.622673,Runza,NE
409,Fast Food Restaurants,Saginaw,US,43.4156,-84.04944,Eudici's Pizza,MI
410,Fast Food Restaurants,Norwood,US,40.9994,-73.9537,Domino's Pizza,NJ
411,Fast Food Restaurants,Budd Lake,US,40.8805,-74.7315,Domino's Pizza,NJ
412,Fast Food Restaurants,Auburn Hills,US,42.702887,-83.306602,Sbarro,MI
413,Fast Food Restaurant,Belvidere,US,42.269137,-88.853432,McDonald's,IL
414,Fast Food Restaurants,Breese,US,38.619582,-89.530023,McDonald's,IL
415,Fast Food Restaurants,Braidwood,US,41.265585,-88.208353,McDonald's,IL
416,Fast Food Restaurant,Bolingbrook,US,41.698519,-88.068207,McDonald's,IL
417,Fast Food Restaurant,Bradley,US,41.160051,-87.851081,McDonald's,IL
418,Fast Food Restaurants,Bourbonnais,US,41.159303,-87.886347,McDonald's,IL
419,Fast Food Restaurants,Plainwell,US,42.449917,-85.661605,Pizza Hut,MI
420,Fast Food Restaurant,Berwyn,US,41.850214,-87.783733,McDonald's,IL
421,Fast food restaurants,Berwyn,US,41.849966,-87.802979,McDonald's,IL
422,Fast Food Restaurant,Belvidere,US,42.240066,-88.841255,McDonald's,IL
423,Fast Food,Belleville,US,38.545182,-90.052155,McDonald's,IL
424,Fast Food,Aurora,US,41.778876,-88.315713,McDonald's,IL
425,Fast Food,Aurora,US,41.759701,-88.208402,McDonald's,IL
426,Fast Food,Alpena,US,45.044076,-83.456928,Arby's,MI
427,Fast Food Restaurants,Alpena,US,45.05034,-83.445,Dairy Queen,MI
428,Fast Food Restaurants,Sulphur,US,30.227514,-93.343155,Pizza Hut,LA
429,Fast Food Restaurants,Aledo,US,41.199464,-90.733615,McDonald's,IL
430,Fast Food,Algonquin,US,42.163979,-88.285165,McDonald's,IL
431,Fast Food Restaurant,Algonquin,US,42.173932,-88.335286,McDonald's,IL
432,Fast Food Restaurant,Conroe,US,30.338972,-95.452562,Taco Cabana,TX
433,Fast Food Restaurants,Nampa,US,43.587291,-116.575061,McDonald's,ID
434,Fast Food Restaurants,Baton Rouge,US,30.39099,-91.06156,Arby's,LA
435,Fast Food Restaurants,Eagle,US,43.693428,-116.353552,McDonald's,ID
436,Fast Food Restaurant,Emmett,US,43.863452,-116.500085,McDonald's,ID
437,Fast Food Restaurants,Belle Vernon,US,40.174915,-79.806673,Subway,PA
438,Fast Food Restaurants,Aliquippa,US,40.588694,-80.260898,Subway,PA
439,Fast Food Restaurants,Wendell,US,35.792697,-78.37903,McDonald's,NC
440,Fast Food,Lumberton,US,34.62292,-79.047438,McDonald's,NC
441,Fast Food,Lancaster,US,34.686106,-118.146797,Round Table Pizza,CA
442,Fast Food,Lancaster,US,34.698297,-118.147471,Pizza Hut,CA
443,Fast Food Restaurants,Paris,US,33.66189,-95.506573,Chicken Express,TX
444,"Fried Chicken Joint, Fast Food Restaurant, and Food",North Richland Hills,US,32.840958,-97.21383,Chicken Express,TX
445,Fast Food Restaurant,Little Elm,US,33.154826,-96.946861,Chicken Express,TX
446,Fast Food Restaurant,Lubbock,US,33.59233,-101.914511,Chicken Express,TX
447,Fried Chicken Joint and Fast Food Restaurant,Keller,US,32.934361,-97.236057,Chicken Express,TX
448,Fast Food Restaurants,Hamilton,US,31.721935,-98.118673,Chicken Express,TX
449,Fast Food Restaurants,Gainesville,US,33.636432,-97.133305,Chicken Express,TX
450,Fast Food Restaurants,Eastland,US,32.401465,-98.791001,Chicken Express,TX
451,Fast food restaurants,Chaska,US,44.830225,-93.601813,Culver's,MN
452,"Fast Food Restaurant, Burger Joint, and Ice Cream Shop",Chaska,US,44.830225,-93.601813,Culver's,MN
453,Fast Food Restaurant,Burnsville,US,44.745654,-93.300905,Jimmy John's,MN
454,Fast Food Restaurant,Jackson,US,32.385437,-90.147307,McDonald's,MS
455,Fast food restaurants,Biloxi,US,30.446349,-88.934148,McDonald's,MS
456,Fast Food Restaurant,Biloxi,US,30.446349,-88.934148,McDonald's,MS
457,Fast Food Restaurant,Charlotte,US,35.108263,-80.881511,McDonald's,NC
458,Fast Food Restaurants,Columbus,US,33.493277,-88.363825,McDonald's,MS
459,Fast Food Restaurant,High Point,US,35.989293,-80.002751,McDonald's,NC
460,"Fast Food Restaurant, American Restaurant, and Sandwich Place",Albert Lea,US,43.684267,-93.359575,Arby's,MN
461,Fast Food Restaurant,Raleigh,US,35.900308,-78.681365,McDonald's,NC
462,Fast Food Restaurant,Libby,US,48.387043,-115.552063,McDonald's,MT
463,Fast Food Restaurants,Libby,US,48.387043,-115.552063,McDonald's,MT
464,Fast Food Restaurants,Bellingham,US,48.739136,-122.469467,Boomer's Drive-In,WA
465,Fast Food Restaurant,Bellingham,US,48.739136,-122.469467,Boomer's Drive-In,WA
466,Fast Food Restaurant,Moss Point,US,30.438931,-88.526545,McDonald's,MS
467,Fast Food Restaurant,Lexington,US,35.837287,-80.253557,McDonald's,NC
468,Fast Food Restaurant,Kernersville,US,36.110972,-80.089276,McDonald's,NC
469,Fast Food Restaurant and Burger Joint,Bozeman,US,45.698929,-111.046744,McDonald's,MT
470,Fast Food,Bozeman,US,45.698929,-111.046744,McDonald's,MT
471,Fast Food Restaurants,Conover,US,35.695895,-81.232175,McDonald's,NC
472,Fast Food Restaurant Heart of Missoula,Missoula,US,46.869446,-113.985036,McDonald's,MT
473,Fast Food Restaurant,Cleveland,US,33.759524,-90.715742,McDonald's,MS
474,Fast Food Restaurants,Cleveland,US,33.759524,-90.715742,McDonald's,MS
475,Fast Food Restaurants,Biloxi,US,30.39304,-88.884899,McDonald's,MS
476,Fast Food Restaurant,Southaven,US,34.962709,-89.990486,McDonald's,MS
477,Fast Food Restaurants,Southaven,US,34.962709,-89.990486,McDonald's,MS
478,Fast Food Restaurants,Greensboro,US,36.088625,-79.887872,McDonald's,NC
479,Fast Food Restaurants,Scotland Neck,US,36.126193,-77.423143,McDonald's,NC
480,Fast Food Restaurant,Scotland Neck,US,36.126193,-77.423143,McDonald's,NC
481,Fast Food Restaurants,Fayetteville,US,35.03713,-79.006832,McDonald's,NC
482,Fast Food Restaurant,Whitefish,US,48.396123,-114.334756,McDonald's,MT
483,Fast Food Restaurants,Charlotte,US,35.333437,-80.798965,McDonald's,NC
484,Fast Food Restaurant and Burger Joint,Charlotte,US,35.203199,-80.73825,McDonald's,NC
485,Fast Food Restaurant and Gas Station,Salisbury,US,35.661995,-80.500358,McDonald's,NC
486,Fast food restaurants,Greensboro,US,36.126014,-79.906582,McDonald's,NC
487,Fast Food Restaurant,Charlotte,US,35.236497,-80.735822,McDonald's,NC
488,Fast Food,Charlotte,US,35.236497,-80.735822,McDonald's,NC
489,Fast Food,Milpitas,US,37.419405,-121.897491,Hot Dog on a Stick,CA
490,Fast Food Restaurants,Santa Maria,US,34.952117,-120.433482,Hot Dog on a Stick,CA
491,Fast Food Restaurant,Sacramento,US,38.599885,-121.427442,Hot Dog on a Stick,CA
492,Fast Food,Brooklyn,US,40.619683,-74.008071,Dunkin' Donuts,NY
493,Fast Food,Brooklyn,US,40.692187,-73.991162,Dunkin' Donuts,NY
494,Fast Food,Lexington,US,35.826728,-80.249726,Arby's,NC
495,Fast Food Restaurant,Lexington,US,35.786441,-80.261414,Burger King,NC
496,Fast Food,Fairview Heights,US,38.592706,-89.97913,Burger King,IL
497,Fast Food Restaurants,Park Hills,US,37.838741,-90.487971,Hardee's,MO
498,Fast Food,Brooklyn,US,40.680355,-73.948909,Dunkin' Donuts,NY
499,Fast Food,Bronx,US,40.844458,-73.89729,Dunkin' Donuts,NY
500,Fast Food,Bronx,US,40.826478,-73.821994,Dunkin' Donuts,NY
501,Fast Food Restaurants,Lexington,US,35.808933,-80.27141,Christo's Original,NC
502,Fast Food Restaurant and Burger Joint,Rockford,US,42.242137,-88.976027,Burger King,IL
503,Fast Food Restaurants,West Monroe,US,32.517245,-92.157261,Burger King,LA
504,Fast Food Restaurant,Hartland,US,42.633792,-83.745291,Taco Bell,MI
505,"Fast Food Restaurant, Playground, and Burger Joint Northeast",Rockford,US,42.266918,-89.078393,Burger King,IL
506,Fast Food Restaurant,Quincy,US,39.935583,-91.358298,Burger King,IL
507,Fast Food Restaurant,Richton Park,US,41.483933,-87.716547,Burger King,IL
508,Fast Food,Pontiac,US,40.873382,-88.662007,Burger King,IL
509,Fast Food Restaurant,Pontiac,US,40.873382,-88.662007,Burger King,IL
510,Fast Food Restaurant and Burger Joint South Newport News,Newport News,US,37.051114,-76.460806,Burger King,VA
511,Fast Food Restaurants,Pekin,US,40.551094,-89.608403,Burger King,IL
512,Fast Food,Grove City,US,39.881314,-83.067606,Taco Bell,OH
513,Fast Food,Oglesby,US,41.293679,-89.071461,Burger King,IL
514,Fast Food Restaurants,Oglesby,US,41.293679,-89.071461,Burger King,IL
515,Fast Food,Auburn,US,38.927033,-121.087568,Taco Bell,CA
516,Fast Food Restaurant,Crescent City,US,41.755062,-124.193834,Taco Bell,CA
517,Fast Food Restaurant,Turlock,US,37.492303,-120.872609,Taco Bell,CA
518,Fast Food Restaurants,Marquette,US,46.545916,-87.420006,Hardee's,MI
519,Fast Food,Turlock,US,37.517764,-120.84839,Taco Bell,CA
520,Fast Food Restaurants,Salisbury,US,38.342966,-75.604458,Hardee's,MD
521,Fast Food,Hilliard,US,39.985085,-83.150784,Taco Bell,OH
522,Fast Food Restaurants,Linthicum Heights,US,39.224397,-76.659193,Hardee's,MD
523,Fast Food,Hilliard,US,40.031912,-83.141324,Taco Bell,OH
524,Fast Food Restaurants,Mount Vernon,US,38.313427,-88.945891,Burger King,IL
525,Fast Food Restaurants,Cambridge,US,38.557459,-76.060385,Hardee's,MD
526,Fast Food Restaurants,Hamilton,US,39.423262,-84.593293,Taco Bell,OH
527,Fast Food,Mount Carmel,US,38.412503,-87.766489,Burger King,IL
528,Fast Food Restaurant,Columbus,US,39.969056,-82.875638,Taco Bell,OH
529,Fast Food Restaurant,Montgomery,US,41.726724,-88.319467,Burger King,IL
530,Fast Food,Montgomery,US,41.726724,-88.319467,Burger King,IL
531,Fast Food,Monmouth,US,40.922304,-90.648003,Burger King,IL
532,Fast Food Restaurants,Monmouth,US,40.922304,-90.648003,Burger King,IL
533,Fast Food Restaurants,Chalfont,US,40.270347,-75.223726,Subway,PA
534,Fast Food Restaurant and Burger Joint,Moline,US,41.472174,-90.477646,Burger King,IL
535,Fast Food Restaurant,Melrose Park,US,41.908625,-87.883706,Burger King,IL
536,Fast Food Restaurant and Mexican Restaurant,Dayton,US,39.789566,-84.238902,Taco Bell,OH
537,Fast Food Restaurants,Dayton,US,39.73069,-84.141681,Taco Bell,OH
538,Fast Food Restaurant,Dayton,US,39.768447,-84.123579,Taco Bell,OH
539,Fast Food,Orlando,US,28.442538,-81.307234,Carvel,FL
540,Fast Food Restaurant,Dayton,US,39.706096,-84.202668,Taco Bell,OH
541,Fast Food Restaurant,East Peoria,US,40.67705,-89.56172,Burger King,IL
542,Fast Food Restaurants,East Peoria,US,40.66816,-89.58274,Chick-Fil-A,IL
543,Fast Food Restaurants,Columbus,US,40.135435,-83.016861,Taco Bell,OH
544,Fast Food Restaurants,Columbus,US,40.058393,-82.917559,Taco Bell,OH
545,Fast Food Restaurant,Columbus,US,40.066295,-83.092686,Taco Bell,OH
546,Fast Food Restaurants,Machesney Park,US,42.313288,-89.054244,Burger King,IL
547,Fast Food Restaurant,Macomb,US,40.458596,-90.648064,Burger King,IL
548,Fast Food Restaurants,Saint Clair,US,40.727488,-76.190098,Subway,PA
549,Fast Food Restaurants,Schuylkill Haven,US,40.637935,-76.171635,Subway,PA
550,Fast Food Restaurants,Bloomsburg,US,41.003082,-76.456548,Subway,PA
551,Fast Food Restaurants,Columbia,US,40.033798,-76.504435,Subway,PA
552,Fast Food Restaurants,Denver,US,40.228059,-76.089173,Subway,PA
553,Fast Food Restaurants,Kankakee,US,41.115978,-87.864762,Burger King,IL
554,Fast Food Restaurant,Joliet,US,41.581105,-88.163626,Burger King,IL
555,Fast Food Restaurants,Ames,US,42.02241,-93.60338,Pizza Hut,IA
556,Fast Food,Gurnee,US,42.377669,-87.934268,Burger King,IL
557,Fast Food Restaurant,Glenview,US,42.088318,-87.798584,Burger King,IL
558,Fast Food Restaurants,Granite City,US,38.72506,-90.12272,Burger King,IL
559,Fast Food,Cicero,US,41.851507,-87.751952,Burger King,IL
560,Fast Food,Orlando,US,28.568433,-81.283031,Dunkin' Donuts,FL
561,Fast Food,Orlando,US,28.469912,-81.368152,Dunkin' Donuts,FL
562,Fast Food,Orlando,US,28.387037,-81.506447,Dunkin' Donuts,FL
563,"Fried Chicken Joint, Fast Food Restaurant, and Food",Chicago,US,42.01803,-87.80717,Chicken Inn,IL
564,Fast Food,Miami,US,25.733104,-80.316348,Dunkin' Donuts,FL
565,Fast Food,Miami,US,25.746581,-80.369852,Dunkin' Donuts,FL
566,"Fast Food Restaurant, Sandwich Place, and American Restaurant",DeKalb,US,41.948497,-88.729428,Arby's,IL
567,Fast Food,Philadelphia,US,39.95343,-75.188171,Shake Shack,PA
568,Fast Food,Hyde Park,US,42.25521,-71.124229,Subway,MA
569,Fast Food Restaurants,Cambridge,US,42.370628,-71.113627,Subway,MA
570,Sandwich Place and Fast Food Restaurant,Maynard,US,42.431817,-71.455051,Subway,MA
571,Fast Food,Thibodaux,US,29.800178,-90.817667,Quiznos Sub,LA
572,Fast Food Restaurant,Los Angeles,US,33.989111,-118.31236,McDonald's,CA
573,Fast Food,Canyon Country,US,34.415365,-118.464489,McDonald's,CA
574,"Sandwich Place, Building, and Fast Food Restaurant",Woodstock,US,34.110167,-84.51781,Subway,GA
575,Fast Food Restaurants,Layton,US,41.101724,-111.945057,Subway,UT
576,Fast Food,Manhattan Beach,US,33.887088,-118.379032,McDonald's,CA
577,Fast Food Restaurant,Merced,US,37.288978,-120.454784,McDonald's,CA
578,Fast Food,Bridgeview,US,41.723814,-87.798059,Culver's,IL
579,Fast Food Restaurant,Los Angeles,US,34.041633,-118.308538,McDonald's,CA
580,Fast Food Restaurant,Modesto,US,37.670921,-121.031266,McDonald's,CA
581,Fast Food Restaurants,Carson,US,33.872499,-118.249899,McDonald's,CA
582,Fast Food Restaurant,Dinuba,US,36.545447,-119.376746,McDonald's,CA
583,Fast Food,Palo Alto,US,37.460186,-122.137635,McDonald's,CA
584,Fast Food Restaurants,Sacramento,US,38.596735,-121.415696,McDonald's,CA
585,Fast Food Restaurant,West Sacramento,US,38.580839,-121.531005,McDonald's,CA
586,Fast Food Restaurant South Vallejo,Vallejo,US,38.083895,-122.232565,McDonald's,CA
587,Fast Food Restaurant,Glendale,US,34.170497,-118.289434,McDonald's,CA
588,Fast Food Restaurant,Chino Hills,US,33.964895,-117.697501,McDonald's,CA
589,Fast Food Restaurants,Hercules,US,38.00878,-122.271288,McDonald's,CA
590,Fast Food Restaurant,Alhambra,US,34.077272,-118.13938,McDonald's,CA
591,Fast Food Restaurants,Santa Ana,US,33.726842,-117.889116,McDonald's,CA
592,Fast Food Restaurants,Seaside,US,36.607914,-121.855982,McDonald's,CA
593,Fast Food Restaurant,Seaside,US,36.607914,-121.855982,McDonald's,CA
594,Fast Food,Daly City,US,37.69382,-122.464558,KFC - Kentucky Fried Chicken,CA
595,Fast Food Restaurants,Woodland,US,38.676763,-121.750518,McDonald's,CA
596,Fast Food Restaurant,Watsonville,US,36.916716,-121.775824,McDonald's,CA
597,"Fast Food Restaurant, American Restaurant, and Sandwich Place Huffman",Birmingham,US,33.590333,-86.697132,Chick-fil-A,AL
598,Fast Food Restaurant,Martinsburg,US,39.446673,-77.986674,Chick-fil-A,WV
599,Fast Food Restaurants,Beckley,US,37.802793,-81.181533,Chick-fil-A,WV
600,Fast Food Restaurant,Yorktown,US,37.115608,-76.468184,Chick-fil-A,VA
601,Fast Food Restaurants,Williamsburg,US,37.33953,-76.738285,Chick-fil-A,VA
602,Fast Food Restaurants,Virginia Beach,US,36.798702,-76.178946,Chick-fil-A,VA
603,"Fast Food Restaurant, American Restaurant, and Sandwich Place",Roanoke,US,37.308619,-79.962426,Chick-fil-A,VA
604,Fast Food Restaurant,Roanoke,US,37.308619,-79.962426,Chick-fil-A,VA
605,Fast Food Restaurants,Roanoke,US,37.228457,-79.977693,Chick-fil-A,VA
606,Fast Food Restaurants,Henrico,US,37.636558,-77.549903,Chick-fil-A,VA
607,Fast Food Restaurant,Azusa,US,34.117576,-117.907269,In-N-Out Burger,CA
608,Fast Food,Baldwin Park,US,34.068261,-117.973647,In-N-Out Burger,CA
609,"Burger Joint, American Restaurant, and Fast Food Restaurant",Barstow,US,34.868082,-117.115929,In-N-Out Burger,CA
610,Fast Food Restaurant,Auburn,US,38.90162,-121.074773,In-N-Out Burger,CA
611,Fast Food Restaurant,Norfolk,US,36.864964,-76.210719,Chick-fil-A,VA
612,"Fast Food Restaurant, American Restaurant, and Sandwich Place",Lynchburg,US,37.36773,-79.175586,Chick-fil-A,VA
613,Fast Food Restaurants,Hampton,US,37.048521,-76.390717,Chick-fil-A,VA
614,Fast Food Restaurant,Fredericksburg,US,38.305008,-77.509345,Chick-fil-A,VA
615,Fast Food Restaurant,Danville,US,36.595957,-79.422353,Chick-fil-A,VA
616,"Fast Food Restaurant, American Restaurant, and Sandwich Place",Chantilly,US,38.887485,-77.444623,Chick-fil-A,VA
617,Fast Food Restaurants,Charlottesville,US,38.078584,-78.473337,Chick-fil-A,VA
618,Fast Food Restaurants,Charlottesville,US,38.088272,-78.471184,Chick-fil-A,VA
619,"Fast Food Restaurant, American Restaurant, and Sandwich Place",Salt Lake City,US,40.636461,-111.886187,Chick-fil-A,UT
620,Fast Food Restaurants,Wilburton,US,34.919944,-95.320358,Pizza Hut,OK
621,Fast Food Restaurants,Checotah,US,35.463509,-95.525382,Pizza Hut,OK
622,Fast Food Restaurants,Owasso,US,36.278105,-95.828151,Pizza Hut,OK
623,Fast Food Restaurants,Healdton,US,34.226489,-97.474934,Pizza Hut,OK
624,Fast Food Restaurants,Tallmadge,US,41.100839,-81.437661,Subway,OH
625,Fast Food Restaurants,Grove City,US,39.896677,-83.081176,Subway,OH
626,Fast Food Restaurants,Youngstown,US,41.103117,-80.706303,Subway,OH
627,Taco Place and Fast Food Restaurant,Hazel Park,US,42.461637,-83.092384,Taco Bell,MI
628,Fast Food Restaurant,Detroit,US,42.414696,-82.991078,Taco Bell,MI
629,Fast Food Restaurants,Cuyahoga Falls,US,41.151148,-81.508981,Subway,OH
630,Fast Food Restaurants,Canton,US,40.829692,-81.424453,Subway,OH
631,Fast Food,Mount Pleasant,US,43.590028,-84.768477,Arby's,MI
632,Fast Food Restaurant,Phoenix,US,33.405438,-111.978286,Whataburger,AZ
633,Fast Food Restaurants,College Park,US,38.993906,-76.932576,Taco Bell,MD
634,Fast Food Restaurant,College Park,US,38.993906,-76.932576,Taco Bell,MD
635,Fast Food,Phoenix,US,33.495054,-112.079863,Whataburger,AZ
636,Burger Joint and Fast Food Restaurant Central City South,Phoenix,US,33.430945,-112.099907,Whataburger,AZ
637,Fast Food Restaurant,Chandler,US,33.304688,-111.968341,Whataburger,AZ
638,Fast Food Restaurant,Avondale,US,33.44927,-112.342173,Whataburger,AZ
639,Fast Food Restaurants,La Grange,US,29.905505,-96.876605,Subway,TX
640,Fast food restaurants,Connersville,US,39.65965,-85.12869,Burger King,IN
641,Fast Food,Flint,US,42.945527,-83.69153,Arby's,MI
642,Fast Food Restaurants,San Diego,US,27.761418,-98.22821,Subway,TX
643,Fast Food,Freeport,US,42.301622,-89.643122,El Burrito Loco,IL
644,Fast Food Restaurant,Cadillac,US,44.275721,-85.406141,Arby's,MI
645,Fast Food Restaurants,Grand Rapids,US,43.009426,-85.689161,Arby's,MI
646,"Fast Food Restaurant, American Restaurant, and Sandwich Place",Wyoming,US,42.884654,-85.683497,Arby's,MI
647,Fast Food Restaurant,Grand Rapids,US,42.912151,-85.593573,Arby's,MI
648,Fast Food,Grand Rapids,US,42.984058,-85.638407,Arby's,MI
649,"Fast Food Restaurant, American Restaurant, and Sandwich Place",Grandville,US,42.905049,-85.776885,Arby's,MI
650,Fast Food,Holland,US,42.755541,-86.11581,Arby's,MI
651,Fast Food,Haines City,US,28.124645,-81.64031,Burger King,FL
652,"Fast Food Restaurant, Sandwich Place, and American Restaurant",Hillsdale,US,41.938054,-84.644247,Arby's,MI
653,"Fast Food Restaurant, American Restaurant, and Sandwich Place",Lowell,US,42.931488,-85.362962,Arby's,MI
654,Fast Food Restaurants,Jackson,US,42.261453,-84.423763,Arby's,MI
655,Fast Food,Plainwell,US,42.450431,-85.663248,Arby's,MI
656,Fast Food Restaurants,Plainwell,US,42.450431,-85.663248,Arby's,MI
657,Fast Food,Marshall,US,42.272194,-84.983336,Arby's,MI
658,Fast Food,Portage,US,42.194116,-85.597792,Arby's,MI
659,"Fast Food Restaurant, American Restaurant, and Sandwich Place",Kalamazoo,US,42.261766,-85.53267,Arby's,MI
660,"Fast Food Restaurant, Sandwich Place, and American Restaurant",Lansing,US,42.669926,-84.543872,Arby's,MI
661,Fast Food Restaurants,Saint Johns,US,42.988532,-84.542143,Arby's,MI
662,Fast Food Restaurants,Bridgeport,US,43.352851,-83.870496,Arby's,MI
663,Fast Food Restaurant,Midland,US,43.661823,-84.247712,Arby's,MI
664,Fast Food Restaurants,West Branch,US,44.251953,-84.226205,Arby's,MI
665,Fast Food Restaurants,Belle Glade,US,26.6752,-80.67163,Burger King,FL
666,Fast Food Restaurant,Clare,US,43.840219,-84.767504,Arby's,MI
667,Fast Food Restaurant,Houghton Lake,US,44.299003,-84.712048,Arby's,MI
668,Fast Food Restaurants,Lapeer,US,43.041955,-83.32014,Arby's,MI
669,Fast Food,Davison,US,43.019622,-83.518344,Arby's,MI
670,Fast Food Restaurant,Grand Blanc,US,42.894241,-83.633182,Arby's,MI
671,Fast Food Restaurants,Manchester,US,43.016751,-71.450512,Papa Gino's,NH
672,"Fast Food Restaurant, American Restaurant, and Burger Joint",Wichita,US,37.649892,-97.315398,Spangles,KS
673,Fast Food,Effingham,US,39.140033,-88.566849,Burger King,IL
674,Fast Food Restaurants,Boise,US,43.62079,-116.22165,Capri Restaurant,ID
675,Fast Food,Effingham,US,39.140232,-88.56615,Arby's,IL
676,Fast Food Restaurants,Olmsted Falls,US,41.37338,-81.90162,Angelina's Pizza,OH
677,Fast Food Restaurant,Pinole,US,37.996359,-122.284873,Jack in the Box,CA
678,Fast Food Restaurant,Canton,US,40.769806,-81.385882,Arby's,OH
679,Fast Food,Canton,US,40.795141,-81.431983,Arby's,OH
680,Fast Food Restaurants,Norfolk,US,36.932528,-76.203127,Chanello's Pizza,VA
681,Fast Food Restaurant,Antioch,US,37.999316,-121.80546,Jack in the Box,CA
682,Fast Food,West Covina,US,34.029369,-117.915337,Jack in the Box,CA
683,Fast Food Restaurants,Dallas,US,34.01031,-84.75335,Pizza Hut,GA
684,Fast Food Restaurants,Fresno,US,36.838733,-119.847902,Taco Bell,CA
685,Fast Food Restaurant,Fullerton,US,33.859865,-117.920754,Jack in the Box,CA
686,Fast Food Restaurant,Sacramento,US,38.596416,-121.41111,Jack in the Box,CA
687,Fast Food,Blue Ridge,US,34.87264,-84.32539,Arby's,GA
688,"Fast Food Restaurant, Sandwich Place, and American Restaurant",Blue Ridge,US,34.87264,-84.32539,Arby's,GA
689,Fast Food Restaurant,Corona,US,33.888055,-117.518723,Jack in the Box,CA
690,Fast Food Restaurant,Fresno,US,36.851564,-119.775033,Taco Bell,CA
691,Fast Food Restaurant,Woodland Hills,US,34.186457,-118.622409,Jack in the Box,CA
692,Fast Food Restaurant,Ontario,US,34.033169,-117.651474,Jack in the Box,CA
693,Fast Food,Sunnyvale,US,37.372189,-122.047663,Taco Bell,CA
694,Fast Food,Carson,US,33.82493,-118.241918,Jack in the Box,CA
695,Fast Food Restaurant,Fairfield,US,38.260137,-122.053517,Taco Bell,CA
696,Fast Food,Pleasant Hill,US,37.981376,-122.067541,Taco Bell,CA
697,Fast Food Restaurant and Mexican Restaurant,Pleasant Hill,US,37.953026,-122.059777,Taco Bell,CA
698,Fast Food,Altadena,US,34.182376,-118.169066,Jack in the Box,CA
699,Fast food restaurants,Acworth,US,34.04479,-84.69587,Burger King,GA
700,Fast Food Restaurants,Acworth,US,34.0344,-84.68075,Arby's,GA
701,Fast Food,Bronx,US,40.872503,-73.886546,Dunkin' Donuts,NY
702,Fast Food,Bronx,US,40.84862,-73.883004,Dunkin' Donuts,NY
703,Fast Food Restaurants,Marietta,US,34.02467,-84.528218,McDonald's,GA
704,Fast Food Restaurant,Bakersfield,US,35.266543,-119.025897,Jack in the Box,CA
705,Fast Food,Bronx,US,40.833843,-73.851523,Dunkin' Donuts,NY
706,Fast Food,Astoria,US,40.775826,-73.910275,Dunkin' Donuts,NY
707,Fast Food Restaurant,Kingsburg,US,36.51788,-119.563527,Taco Bell,CA
708,Fast Food Restaurants,Fort Scott,US,37.79675,-94.70744,Krispy Krunchy Chicken,KS
709,Fast Food,Pismo Beach,US,35.134484,-120.605221,Taco Bell,CA
710,Fast Food Restaurants,Grover Beach,US,35.121085,-120.612819,Taco Bell,CA
711,Fast Food Restaurant and Mexican Restaurant,Nipomo,US,35.037452,-120.483624,Taco Bell,CA
712,Fast Food,Bakersfield,US,35.389522,-119.003386,Taco Bell,CA
713,Fast Food Restaurant,Bakersfield,US,35.389522,-119.003386,Taco Bell,CA
714,Fast Food,Dodge City,US,37.752962,-100.025416,Arby's,KS
715,Fast Food Restaurants,Dodge City,US,37.752962,-100.025416,Arby's,KS
716,Fast Food Restaurant,Bakersfield,US,35.380387,-119.020827,Taco Bell,CA
717,Fast Food Restaurant,Tulare,US,36.227047,-119.330843,Taco Bell,CA
718,Fast Food,Tulare,US,36.208664,-119.342028,Taco Bell,CA
719,Fast Food Restaurant,Gainesville,US,29.652081,-82.333303,Taco Bell,FL
720,Fast Food Restaurant,Oak Ridge,US,36.015703,-84.250773,Krystal,TN
721,"Fast Food Restaurant, Burger Joint, and Restaurant",Nashville,US,36.157939,-86.799227,Krystal,TN
722,Fast Food Restaurants,Nashville,US,36.120277,-86.775571,Krystal,TN
723,Fast Food,Knoxville,US,35.973917,-83.976094,Krystal,TN
724,"Fast Food Restaurant, Burger Joint, and Restaurant",Chattanooga,US,34.989327,-85.211741,Krystal,TN
725,Fast Food Restaurant,Chattanooga,US,34.989327,-85.211741,Krystal,TN
726,Fast Food Restaurant,Chattanooga,US,35.010584,-85.221313,Krystal,TN
727,Fast Food Restaurants,Coffeyville,US,37.0326,-95.6188,KFC,KS
728,Fast Food Restaurants,North Augusta,US,33.491053,-81.952448,Krystal,SC
729,Fast Food Restaurant,Ridgeland,US,32.399857,-90.109009,Krystal,MS
730,Fast Food,Roswell,US,34.023536,-84.330254,Krystal,GA
731,Fast Food,Rome,US,34.244236,-85.161695,Krystal,GA
732,Fast Food,Rome,US,34.265001,-85.198828,Krystal,GA
733,Fast Food Restaurants,Perry,US,32.468806,-83.74181,Krystal,GA
734,Fast Food Restaurants,Pooler,US,32.110139,-81.233775,Krystal,GA
735,Fast Food Restaurants,Marietta,US,34.022274,-84.529025,Krystal,GA
736,"Fast Food Restaurant, Burger Joint, and Restaurant",Marietta,US,34.022274,-84.529025,Krystal,GA
737,Fast Food,Coeur d'Alene,US,47.700486,-116.795134,Arby's,ID
738,Fast Food Restaurant,Coeur d'Alene,US,47.700486,-116.795134,Arby's,ID
739,Fast Food Restaurants,Spring Grove,US,39.882529,-76.864965,Subway,PA
740,Fast Food Restaurants,Waynesboro,US,39.753163,-77.573373,Subway,PA
741,Fast Food Restaurants,Snow Shoe,US,41.026843,-77.935809,Subway,PA
742,Fast Food Restaurants,Mansfield,US,41.799828,-77.076281,Subway,PA
743,Fast Food Restaurants,Camp Hill,US,40.222472,-76.930148,Subway,PA
744,Fast Food Restaurant,Roaring Spring,US,40.331501,-78.386171,Subway,PA
745,Fast Food Restaurants,Erie,US,42.086667,-80.142521,Subway,PA
746,Fast Food Restaurants,Erie,US,42.068814,-80.038942,Subway,PA
747,Fast Food Restaurants,Erie,US,42.114222,-80.034149,Subway,PA
748,Fast Food Restaurants,Titusville,US,41.627797,-79.673326,Subway,PA
749,Fast Food Restaurants,White City,US,42.424354,-122.85108,McDonald's,OR
750,Fast Food Restaurant,West Linn,US,45.346352,-122.651045,McDonald's,OR
751,Fast Food Restaurant,West Linn,US,45.391447,-122.646082,McDonald's,OR
752,Fast Food,West Linn,US,45.391447,-122.646082,McDonald's,OR
753,Fast Food Restaurant,Troutdale,US,45.543827,-122.3976,McDonald's,OR
754,"Fast Food Restaurant, American Restaurant, and Sandwich Place",Hialeah,US,25.85236,-80.319439,Arby's,FL
755,Fast Food Restaurant Grand Chute,Appleton,US,44.272996,-88.470975,Taco Bell,WI
756,"Fast Food Restaurant, American Restaurant, and Sandwich Place",Bear,US,39.630468,-75.666136,Chick-Fil-A,DE
757,Fast Food Restaurant and Burger Joint,Bear,US,39.630185,-75.664759,Burger King,DE
758,Fast Food,Springfield,US,44.045685,-122.928465,McDonald's,OR
759,Fast Food Restaurants,Camden,US,39.94522,-75.11804,China Bowl Take Out Restaurant,NJ
760,Fast Food Restaurant Northeast Salem,Salem,US,44.949393,-122.992538,McDonald's,OR
761,Fast Food Restaurant,Salem,US,44.947221,-123.049783,McDonald's,OR
762,Fast Food,Salem,US,44.947221,-123.049783,McDonald's,OR
763,Fast Food,Gainesville,US,29.637631,-82.338916,Arby's,FL
764,Fast Food Restaurants,Salem,US,44.881341,-123.029824,McDonald's,OR
765,Fast Food Restaurant,Milton,US,30.592351,-87.174869,McDonald's,FL
766,Fast Food Restaurants,Bridgeville,US,40.366766,-80.106088,Sonic Drive In,PA
767,Fast Food Restaurants,Canonsburg,US,40.255621,-80.153666,Sonic Drive In,PA
768,Fast Food Restaurant,Hinesville,US,31.843914,-81.593593,McDonald's,GA
769,Fast Food Restaurant,Hinesville,US,31.828902,-81.617553,McDonald's,GA
770,Fast Food Restaurant,Navarre,US,30.401603,-86.866497,Burger King,FL
771,Fast Food,Gainesville,US,34.296844,-83.837155,McDonald's,GA
772,Fast Food Restaurant,Roseburg,US,43.23357,-123.372345,McDonald's,OR
773,Fast Food Restaurants,Hartwell,US,34.357912,-82.941308,McDonald's,GA
774,Fast Food,Hawkinsville,US,32.282152,-83.465677,McDonald's,GA
775,Fast Food Restaurants,Redmond,US,44.267184,-121.194265,McDonald's,OR
776,Fast Food Restaurant,Portland,US,45.496867,-122.570625,McDonald's,OR
777,Fast Food Restaurants,Portland,US,45.534074,-122.660326,McDonald's,OR
778,Fast Food Restaurant Rockwood,Portland,US,45.518568,-122.474804,McDonald's,OR
779,Fast Food,Gainesville,US,34.33859,-83.847194,McDonald's,GA
780,Fast Food Restaurants,Portland,US,45.547097,-122.578418,McDonald's,OR
781,Fast Food Restaurant,Flowery Branch,US,34.113731,-83.875289,McDonald's,GA
782,Fast Food Restaurant Hayden Island,Portland,US,45.610301,-122.680866,McDonald's,OR
783,Fast Food Restaurants,Fitzgerald,US,31.700147,-83.250732,McDonald's,GA
784,Fast Food Restaurants,Elberton,US,34.109957,-82.864359,McDonald's,GA
785,Fast Food Restaurant,Portland,US,45.581668,-122.661459,McDonald's,OR
786,Fast Food,Portland,US,45.443493,-122.628779,McDonald's,OR
787,Fast Food Restaurants,Portland,US,45.516651,-122.679915,McDonald's,OR
788,Fast Food Restaurants,Portland,US,45.523,-122.689866,McDonald's,OR
789,Fast Food Restaurants,Atlanta,US,33.895572,-84.283386,McDonald's,GA
790,Fast Food Restaurant,Portland,US,45.586771,-122.738535,McDonald's,OR
791,Fast Food Restaurant,Portland,US,45.511068,-122.682941,McDonald's,OR
792,Fast Food Restaurant,Portland,US,45.497752,-122.635837,McDonald's,OR
793,Fast Food Restaurant,Douglasville,US,33.724674,-84.762459,McDonald's,GA
794,Fast Food Restaurant,Ellijay,US,34.677928,-84.47945,McDonald's,GA
795,Fast Food Restaurant,Oregon City,US,45.368912,-122.601786,McDonald's,OR
796,Fast Food,Pendleton,US,45.656863,-118.810088,McDonald's,OR
797,Fast food restaurants,Decatur,US,33.77819,-84.295842,McDonald's,GA
798,Fast Food Restaurant,Douglasville,US,33.731508,-84.73673,McDonald's,GA
799,Fast Food Restaurants,Oregon City,US,45.334883,-122.589765,McDonald's,OR
800,Fast Food,Ontario,US,44.024706,-116.940583,McDonald's,OR
801,Fast Food Restaurants,Ontario,US,44.024706,-116.940583,McDonald's,OR
802,Fast Food Restaurant,Winter Springs,US,28.650648,-81.269726,Arby's,FL
803,Fast Food Restaurants,Oakridge,US,43.747162,-122.486358,McDonald's,OR
804,Fast Food Restaurant,Newport,US,44.647361,-124.053022,McDonald's,OR
805,Fast Food,Dalton,US,34.65458,-84.980898,McDonald's,GA
806,Fast Food Restaurant and Burger Joint,Dalton,US,34.65458,-84.980898,McDonald's,GA
807,Fast Food Restaurant and Burger Joint,Dallas,US,33.868809,-84.841628,McDonald's,GA
808,Fast Food,Medford,US,42.371763,-122.855932,McDonald's,OR
809,Bakery & Pastries / American / Fast Food,Fredericksburg,US,38.292937,-77.513196,Auntie Anne's Pretzels,VA
810,Fast Food Restaurant,Cumming,US,34.186966,-84.142456,McDonald's,GA
811,Bakery & Pastries / American / Fast Food,Temple,US,31.069841,-97.369331,Auntie Anne's Pretzels,TX
812,Fast Food Restaurants,Medford,US,42.339557,-122.872146,McDonald's,OR
813,Fast Food Restaurant,Long Beach,US,46.341977,-124.05442,McDonald's,WA
814,Fast Food Restaurant,Covington,US,33.614464,-83.920178,McDonald's,GA
815,Sandwich Place and Fast Food Restaurant,Nashville,US,35.9784,-77.974215,Subway,NC
816,Fast Food Restaurants,Newton,US,35.646477,-81.26355,Subway,NC
817,Fast Food Restaurant,Conyers,US,33.627899,-83.977799,McDonald's,GA
818,Fast Food Restaurants,Conyers,US,33.627899,-83.977799,McDonald's,GA
819,Fast Food Restaurants,Mount Airy,US,36.473546,-80.611793,Subway,NC
820,Fast Food Restaurant,Mooresville,US,35.582983,-80.874128,Subway,NC
821,Fast Food Restaurants,Morganton,US,35.725336,-81.692565,Subway,NC
822,Fast Food Restaurant,Columbus,US,32.5324,-84.967533,McDonald's,GA
823,Fast Food Restaurants,Columbus,US,32.5324,-84.967533,McDonald's,GA
824,Fast Food Restaurant,Kinston,US,35.262313,-77.644783,Subway,NC
825,Fast Food Restaurant,Cartersville,US,34.15733,-84.816204,McDonald's,GA
826,Fast Food Restaurants,Carrollton,US,33.596396,-85.036596,McDonald's,GA
827,Fast Food Restaurant,Carrollton,US,33.596396,-85.036596,McDonald's,GA
828,Fast Food Restaurants,Destin,US,30.386772,-86.401695,Back Yard Burgers,FL
829,Fast Food Restaurants,Jackson,US,32.326801,-90.172307,McDonald's,MS
830,Fast Food Restaurants,Snow Hill,US,35.442179,-77.668133,McDonald's,NC
831,Fast Food Restaurants,Crestview,US,30.7873,-86.55969,Arby's,FL
832,Fast Food,Santa Ana,US,33.727985,-117.885151,Subway,CA
833,Fast Food,Santa Ana,US,33.6964,-117.885408,Subway,CA
834,Fast Food,Santa Ana,US,33.769219,-117.835744,Subway,CA
835,Fast Food Restaurant,Raleigh,US,35.90928,-78.727544,McDonald's,NC
836,Fast Food Restaurants,Livingston,US,45.64066,-110.571452,McDonald's,MT
837,Fast Food Restaurant,Deer Lodge,US,46.411823,-112.724593,McDonald's,MT
838,Fast Food Restaurants,Deer Lodge,US,46.411823,-112.724593,McDonald's,MT
839,Fast Food,Deer Lodge,US,46.411823,-112.724593,McDonald's,MT
840,Fast Food Restaurants,Elizabeth City,US,36.329474,-76.226337,McDonald's,NC
841,Fast Food,Mooresville,US,35.557833,-80.856348,McDonald's,NC
842,Fast Food Restaurants,Clermont,US,28.402169,-81.697288,Bob Evans,FL
843,Fast Food Restaurant,Smithfield,US,35.519613,-78.314004,McDonald's,NC
844,Fast Food Restaurant,Charlotte,US,35.276966,-80.794009,McDonald's,NC
845,Fast Food Restaurant,Lenoir,US,35.91401,-81.527586,McDonald's,NC
846,Fast Food Restaurant,Gulfport,US,30.450438,-89.103813,McDonald's,MS
847,Fast food restaurants,Hayesville,US,35.034764,-83.821833,Hardee's,NC
848,Fast Food Restaurant,Charlotte,US,35.19287,-80.795726,McDonald's,NC
849,Fast food restaurants,Gastonia,US,35.238769,-81.194628,Hardee's,NC
850,Fast Food Restaurant,Jackson,US,32.31227,-90.177959,McDonald's,MS
851,Fast Food Restaurant,Eden,US,36.492133,-79.746476,Hardee's,NC
852,Fast Food Restaurants,Randleman,US,35.822904,-79.822825,McDonald's,NC
853,Fast Food Restaurant,Conover,US,35.6961,-81.230717,Hardee's,NC
854,Fast Food Restaurant and Burger Joint,Chapel Hill,US,35.909908,-78.983714,Hardee's,NC
855,Fast Food Restaurant,Carthage,US,35.34094,-79.400623,Hardee's,NC
856,Fast Food Restaurants,Tarboro,US,35.905248,-77.562595,McDonald's,NC
857,Burger Joint and Fast Food Restaurant,Bladenboro,US,34.545145,-78.785893,Hardee's,NC
858,Fast Food Restaurant,Carthage,US,35.332805,-79.415903,Hardee's,NC
859,Fast Food Restaurant,Independence,US,44.851161,-123.204255,McDonald's,OR
860,Fast Food Restaurants,Hood River,US,45.709696,-121.532872,McDonald's,OR
861,Fast Food Restaurant,Hood River,US,45.711475,-121.499772,McDonald's,OR
862,Fast Food Restaurant Gresham-Centennial,Gresham,US,45.489761,-122.475544,McDonald's,OR
863,Fast Food Restaurants,Salem,US,44.990019,-122.987467,McDonald's,OR
864,Fast Food Restaurants,Red Oak,US,32.560257,-96.823426,Whataburger,TX
865,Fast Food,Gladstone,US,45.383197,-122.58201,McDonald's,OR
866,Fast Food,Grants Pass,US,42.437441,-123.307733,McDonald's,OR
867,Fast Food Restaurant,Farmington,US,42.500184,-83.357749,Arby's,MI
868,Fast Food Restaurants,Winterville,US,35.546412,-77.404309,Chick-fil-A,NC
869,Fast Food Restaurant,Florence,US,43.974386,-124.097926,McDonald's,OR
870,"Fast Food Restaurant, Burger Joint, and Restaurant",Macon,US,32.817348,-83.69834,Krystal,GA
871,Fast Food Restaurant,Macon,US,32.856462,-83.617472,Krystal,GA
872,Fast Food Restaurants,Eugene,US,44.048015,-123.145834,McDonald's,OR
873,Fast Food Restaurant,Eugene,US,44.095702,-123.126687,McDonald's,OR
874,Fast Food,Lake Park,US,30.680252,-83.220932,Krystal,GA
875,Fast Food Restaurant,Falls Church,US,38.868724,-77.144013,Chick-fil-A,VA
876,Fast Food Restaurants,Falls Church,US,38.868724,-77.144013,Chick-fil-A,VA
877,Fast food restaurants,Corvallis,US,44.566313,-123.259904,McDonald's,OR
878,Fast Food,Coos Bay,US,43.361532,-124.213226,McDonald's,OR
879,Fast Food Restaurant,Decatur,US,33.736384,-84.287184,Krystal,GA
880,Fast Food,Cumming,US,34.189128,-84.137876,Krystal,GA
881,Fast Food Restaurants,Columbus,US,39.980981,-82.83474,Chick-Fil-A,OH
882,Fast Food,Bend,US,44.048984,-121.331653,McDonald's,OR
883,Fast Food Restaurant,Bend,US,44.020936,-121.324566,McDonald's,OR
884,Fast Food,Augusta,US,33.47578,-81.991378,Krystal,GA
885,Fast Food,Augusta,US,33.46868,-82.075236,Krystal,GA
886,Fast Food,Augusta,US,33.513269,-82.053941,Krystal,GA
887,Fast Food Restaurants,Astoria,US,46.190432,-123.836124,McDonald's,OR
888,Fast Food,Astoria,US,46.190432,-123.836124,McDonald's,OR
889,Fast food restaurants,Albany,US,44.642616,-123.064759,McDonald's,OR
890,Fast Food,Palatka,US,29.656899,-81.668415,Krystal,FL
891,Fast Food Restaurant,Pensacola,US,30.478856,-87.207158,Krystal,FL
892,Fast Food,Winner,US,43.376558,-99.850683,McDonald's,SD
893,Fast Food Restaurant,Orange Park,US,30.186646,-81.701507,Krystal,FL
894,Fast Food,Milton,US,30.620909,-87.045392,Krystal,FL
895,Fast Food Restaurants,Vermillion,US,42.788466,-96.929214,McDonald's,SD
896,Fast Food Restaurant,Sioux Falls,US,43.516712,-96.771109,McDonald's,SD
897,Fast Food Restaurants,Watertown,US,44.89069,-97.060755,McDonald's,SD
898,Fast Food,Jacksonville,US,30.307027,-81.748163,Krystal,FL
899,Fast Food,Troy,US,31.780207,-85.947736,Krystal,AL
900,Fast Food Restaurant,Spearfish,US,44.501289,-103.860878,McDonald's,SD
901,Fast Food,Jacksonville,US,30.282482,-81.723343,Krystal,FL
902,Fast Food Restaurant,Norwalk,US,41.124924,-73.393875,Garden Catering,CT
903,Fast Food Restaurant,Montgomery,US,32.381556,-86.205727,Krystal,AL
904,Fast Food Restaurant,Sioux Falls,US,43.529298,-96.688086,McDonald's,SD
905,Fast Food Restaurant,Sioux Falls,US,43.514831,-96.77452,McDonald's,SD
906,Fast Food,Rapid City,US,44.081793,-103.256176,McDonald's,SD
907,Fast Food Restaurant,Rapid City,US,44.097617,-103.201638,McDonald's,SD
908,Fast Food,Rapid City,US,44.09567,-103.150262,McDonald's,SD
909,Fast Food,Dana Point,US,33.49042,-117.697784,Round Table Pizza,CA
910,Fast Food,Dana Point,US,33.466063,-117.703407,Pizza Hut,CA
911,Fast Food,Pierre,US,44.370576,-100.360388,McDonald's,SD
912,Fast Food Restaurant,Chamberlain,US,43.809754,-99.331061,McDonald's,SD
913,Fast Food Restaurant and Mexican Restaurant,Alexandria,US,45.942085,-95.312621,Taco Bell,MN
914,Fast Food Restaurants,Brookings,US,44.311492,-96.778289,McDonald's,SD
915,Burger Joint and Fast Food Restaurant,Dana Point,US,33.4645,-117.6845,A's Ace Burgers,CA
916,Fast Food,Minneapolis,US,45.100401,-93.261821,Taco Bell,MN
917,Fast Food Restaurant,Columbia City,US,41.165002,-85.491461,Hardee's,IN
918,Fast Food Restaurant and Mexican Restaurant,Chanhassen,US,44.862427,-93.545212,Taco Bell,MN
919,Fast Food Restaurants,Minneapolis,US,44.836406,-93.289271,Taco Bell,MN
920,Fast Food Restaurants,Springfield,US,39.831094,-89.630856,Hardee's,IL
921,Fast Food Restaurants,Rock Falls,US,41.779723,-89.689459,Hardee's,IL
922,Fast Food Restaurant,La Crosse,US,43.773454,-91.217936,Taco Bell,WI
923,Fast Food,Rantoul,US,40.307787,-88.155799,Hardee's,IL
924,Fast Food Restaurant,Minneapolis,US,45.129052,-93.257356,Taco Bell,MN
925,Fast Food Restaurant,Saint Paul,US,44.949379,-93.018372,Taco Bell,MN
926,Fast Food Restaurant,Minneapolis,US,44.947993,-93.273227,Taco Bell,MN
927,Fast Food Restaurant and Mexican Restaurant Highland,Burnsville,US,44.772818,-93.305195,Taco Bell,MN
928,Fast Food Restaurant,Lomita,US,33.775879,-118.316788,Jack in the Box,CA
929,Fast Food Restaurant,Saint Paul,US,44.99229,-93.146918,Taco Bell,MN
930,Fast Food Restaurant,Lincoln,US,40.157681,-89.376015,Hardee's,IL
931,Fast Food,Lebanon,US,38.598766,-89.80814,Hardee's,IL
932,Fast Food Restaurant,Savage,US,44.748779,-93.380588,Taco Bell,MN
933,Fast Food Restaurants,Bakersfield,US,35.353978,-119.333016,Jack in the Box,CA
934,Fast Food Restaurant,Carson,US,33.845788,-118.264942,Jack in the Box,CA
935,Fast Food,Dixon,US,41.838775,-89.480586,Hardee's,IL
936,Fast Food,Decatur,US,39.845562,-88.972223,Hardee's,IL
937,Fast Food Restaurant,South San Francisco,US,37.647773,-122.418953,Jack in the Box,CA
938,Fast Food Restaurant,Riverside,US,33.889298,-117.321512,Jack in the Box,CA
939,Fast Food,Huntington Beach,US,33.685315,-117.953958,Jack in the Box,CA
940,Fast Food Restaurant,Roseville,US,38.744305,-121.254947,Jack in the Box,CA
941,Fast Food Restaurant,Waterloo,US,42.499109,-92.330907,Hardee's,IA
942,Fast Food Restaurants,Toledo,US,41.985609,-92.579043,Hardee's,IA
943,Fast Food Restaurant,Toledo,US,41.985609,-92.579043,Hardee's,IA
944,Fast Food Restaurants,Mount Pleasant,US,40.964267,-91.541462,Hardee's,IA
945,Fast Food Restaurant,Mount Vernon,US,41.922059,-91.417242,Hardee's,IA
946,Fast Food Restaurants,Marshalltown,US,42.038049,-92.912755,Hardee's,IA
947,Fast Food Restaurants,Knoxville,US,41.320674,-93.108756,Hardee's,IA
948,Fast Food Restaurant,Rowland Heights,US,33.996416,-117.905682,Jack in the Box,CA
949,Fast Food Restaurants,Gilroy,US,37.00287,-121.55097,Arby's,CA
950,Fast Food Restaurants,Grinnell,US,41.744996,-92.727375,Hardee's,IA
951,Fast Food Restaurant,San Rafael,US,37.973329,-122.538903,Jack in the Box,CA
952,Fast Food,Gardena,US,33.901911,-118.299873,Pizza Hut,CA
953,Fast Food Restaurants,Hamilton,US,39.390724,-84.512034,Arby's,OH
954,Fast Food Restaurant,Fontana,US,34.092694,-117.436161,Baker's Drive Thru,CA
955,Fast Food Restaurants,Fontana,US,34.084914,-117.435638,Pizza Hut,CA
956,Fast Food,Fremont,US,37.562065,-122.010574,Pizza Guys,CA
957,"Fast Food Restaurant, Sandwich Place, and American Restaurant",Ermine,US,37.123476,-82.782979,Arby's,KY
958,Fast Food,Maysville,US,38.635851,-83.791233,Arby's,KY
959,"Fast Food Restaurant, Sandwich Place, and American Restaurant",South Williamson,US,37.654201,-82.272153,Arby's,KY
960,Fast Food Restaurants,Fresno,US,36.73512,-119.70085,Chicago Pizza With A Twist,CA
961,Fast Food,Macomb,US,42.629748,-82.914552,Arby's,MI
962,Fast Food Restaurant,Oacoma,US,43.803192,-99.394397,Arby's,SD
963,Fast Food Restaurant,Manchester,US,42.956836,-71.431785,Arby's,NH
964,Fast Food,Broken Bow,US,34.019276,-94.739067,Arby's,OK
965,Fast Food Restaurant,Frackville,US,40.768785,-76.223857,Arby's,PA
966,"Fast Food Restaurant, Sandwich Place, and American Restaurant",Medford,US,42.313247,-122.860231,Arby's,OR
967,Fast Food,Sayre,US,41.981524,-76.543623,Arby's,PA
968,"Fast Food Restaurant, Sandwich Place, and American Restaurant",Dublin,US,37.084733,-80.690316,Arby's,VA
969,Fast Food Restaurants,Eureka,US,40.80194,-124.16652,Surfside Burger Shack,CA
970,Fast Food Restaurant,Gordonsville,US,37.979247,-78.210747,Arby's,VA
971,Fast Food Restaurant,Tucson,US,32.502841,-110.925483,Arby's,AZ
972,Fast Food,Hamilton,US,39.423607,-84.584287,Arby's,OH
973,"Fast Food Restaurant, Sandwich Place, and American Restaurant",Milford,US,39.191253,-84.254849,Arby's,OH
974,Fast Food Restaurants,Cincinnati,US,39.145862,-84.625642,Arby's,OH
975,Fast Food Restaurants,Cincinnati,US,39.225036,-84.516375,Arby's,OH
976,Fast Food Restaurant,Middletown,US,39.500007,-84.350646,Arby's,OH
977,"American Restaurant, Fast Food Restaurant, and Sandwich Place",Mason,US,39.357377,-84.26839,Arby's,OH
978,Fast Food Restaurant,Hot Springs National Park,US,34.490828,-93.087125,Arby's,AR
979,Fast Food Restaurant and Sandwich Place,Albuquerque,US,35.175602,-106.592743,Arby's,NM
980,Fast Food Restaurant,Shepherdsville,US,37.989576,-85.708683,Arby's,KY
981,Fast Food Restaurants,McMinnville,US,45.22944,-123.171326,Arby's,OR
982,Fast food restaurants,Danville,US,36.582443,-79.351877,Burger King,VA
983,Fast Food,Union,US,38.431621,-90.971016,Arby's,MO
984,Fast Food Restaurants,Saint Cloud,US,45.563438,-94.142246,Arby's,MN
985,Fast Food Restaurants,Thief River Falls,US,48.119546,-96.184237,Arby's,MN
986,Fast Food Restaurants,Worthington,US,43.63511,-95.594416,Arby's,MN
987,Fast Food,Diamond Bar,US,34.018794,-117.810074,Baskin-Robbins,CA
988,Fast Food,Mankato,US,44.166422,-93.950449,Arby's,MN
989,Fast Food,Rochester,US,44.006546,-92.475045,Arby's,MN
990,"Fast Food Restaurant, American Restaurant, and Sandwich Place",Minneapolis,US,45.15777,-93.234152,Arby's,MN
991,"Fast Food Restaurant, American Restaurant, and Sandwich Place",Minneapolis,US,45.196941,-93.352381,Arby's,MN
992,"Fast Food Restaurant, American Restaurant, and Sandwich Place East Bloomington",Minneapolis,US,44.835821,-93.289168,Arby's,MN
993,Fast Food Restaurant,Minneapolis,US,44.965776,-93.349947,Arby's,MN
994,Fast Food Restaurant,Osseo,US,45.0977,-93.447752,Arby's,MN
995,Fast Food Restaurant,Shakopee,US,44.776371,-93.41555,Arby's,MN
996,Fast Food Restaurant,Saint Paul,US,44.728567,-93.218517,Arby's,MN
997,Fast Food,Saint Paul,US,44.921734,-93.166681,Arby's,MN
998,"Fast Food Restaurant, American Restaurant, and Sandwich Place",Faribault,US,44.293146,-93.289314,Arby's,MN
999,Fast Food,Saint Paul,US,45.035373,-93.018161,Arby's,MN
1000,Fast Food,Lindstrom,US,45.391838,-92.854527,Arby's,MN
1001,Fast Food Restaurant,Cambridge,US,45.572166,-93.194886,Arby's,MN
1002,Fast Food Restaurant,Colton,US,34.04919,-117.30848,Carl's Jr,CA
1003,Fast Food Restaurant Downtown Compton,Compton,US,33.895706,-118.22063,Burger King,CA
1004,Fast Food Restaurant,Compton,US,33.895706,-118.22063,Burger King,CA
1005,Fast food restaurants,Compton,US,33.895706,-118.22063,Burger King,CA
1006,Fast Food,Chula Vista,US,32.626972,-117.08742,McDonald's,CA
1007,Fast Food Restaurants,Chula Vista,US,32.645386,-117.095244,Filippi's Pizza Grotto,CA
1008,Fast Food Restaurant,Knoxville,US,36.006911,-84.018081,Burger King,TN
1009,Fast food restaurants,Citrus Heights,US,38.677958,-121.2652,Burger King,CA
1010,Fast Food Restaurant,Citrus Heights,US,38.677958,-121.2652,Burger King,CA
1011,Fast Food Restaurants,Willows,US,39.52263,-122.21168,McDonald's,CA
1012,Fast Food Restaurant,Mesa,US,33.383365,-111.806379,In-N-Out Burger,AZ
1013,Fast Food,Northridge,US,34.23081,-118.553117,In-N-Out Burger,CA
1014,Fast Food Restaurant,Northridge,US,34.249947,-118.502025,In-N-Out Burger,CA
1015,Fast Food Restaurants,Northridge,US,34.249947,-118.502025,In-N-Out Burger,CA
1016,"Burger Joint, Fast Food Restaurant, and American Restaurant",Lodi,US,38.115581,-121.308422,In-N-Out Burger,CA
1017,Fast Food,Las Vegas,US,36.101699,-115.181949,In-N-Out Burger,NV
1018,Fast Food Restaurant,Las Vegas,US,36.104154,-115.137669,In-N-Out Burger,NV
1019,Fast Food,Las Vegas,US,36.195559,-115.246489,In-N-Out Burger,NV
1020,Fast Food,La Habra,US,33.924612,-117.92376,In-N-Out Burger,CA
1021,"Burger Joint, Fast Food Restaurant, and American Restaurant",La Puente,US,34.037558,-117.951543,In-N-Out Burger,CA
1022,Fast Food Restaurants,Lake Elsinore,US,33.663594,-117.298456,In-N-Out Burger,CA
1023,Fast Food,Huntington Park,US,33.987229,-118.225232,In-N-Out Burger,CA
1024,Burger Joint and Fast Food Restaurant,Santa Barbara,US,34.443144,-119.790749,In-N-Out Burger,CA
1025,Fast Food Restaurants,Gilbert,US,33.305915,-111.743558,In-N-Out Burger,AZ
1026,Fast Food,Gilbert,US,33.305915,-111.743558,In-N-Out Burger,AZ
1027,"Burger Joint, Fast Food Restaurant, and American Restaurant",Glendale,US,34.145491,-118.255077,In-N-Out Burger,CA
1028,"Burger Joint, Fast Food Restaurant, and American Restaurant City Center",Glendale,US,34.145491,-118.255077,In-N-Out Burger,CA
1029,Fast Food Restaurant,Fullerton,US,33.860445,-117.92383,In-N-Out Burger,CA
1030,Fast Food Restaurant,El Cajon,US,32.81951,-116.961817,In-N-Out Burger,CA
1031,Fast Food Restaurant,Fontana,US,34.075035,-117.435042,In-N-Out Burger,CA
1032,Fast Food Restaurant,Chino,US,33.99728,-117.718356,In-N-Out Burger,CA
1033,Fast Food Restaurant,San Diego,US,32.981603,-117.077584,In-N-Out Burger,CA
1034,Fast food restaurants,Castro Valley,US,37.694563,-122.085455,Burger King,CA
1035,Fast food restaurants,Campbell,US,37.294339,-121.950871,Burger King,CA
1036,Fast Food,Carson,US,33.813652,-118.276061,Pizza Hut,CA
1037,Fast Food Restaurant,Long Beach,US,33.78292,-118.17667,Church's Chicken,CA
1038,Fast Food Restaurant and Burger Joint,Carmichael,US,38.632,-121.3288,Burger King,CA
1039,Fast Food Restaurants,Canoga Park,US,34.19788,-118.606399,Arby's,CA
1040,fast food restaurant,Spanish Fork,US,40.123976,-111.642624,Burger King,UT
1041,Fast Food Restaurant,Brea,US,33.911434,-117.865544,Arby's,CA
1042,Fast Food Restaurant,Park City,US,40.658326,-111.507084,Burger King,UT
1043,Fast Food Restaurants,Atascadero,US,35.4857,-120.6641,Carl's Jr,CA
1044,Fast food restaurants,Atascadero,US,35.474274,-120.654576,Burger King,CA
1045,Fast food restaurants,Layton,US,41.072556,-111.978598,Burger King,UT
1046,Fast Food Restaurant,Hurricane,US,37.176458,-113.300377,Burger King,UT
1047,Fast food restaurants,Brawley,US,32.978699,-115.541252,Carl's Jr,CA
1048,Fast Food Restaurant,Benicia,US,38.06753,-122.168337,Burger King,CA
1049,Fast Food Restaurant and Burger Joint,Uvalde,US,29.21207,-99.778349,Burger King,TX
1050,Fast Food Restaurant and Burger Joint,Barstow,US,34.891772,-117.001755,Burger King,CA
1051,Fast Food Restaurant,Bellflower,US,33.872425,-118.118195,Burger King,CA
1052,Fast Food Restaurants,Sherman,US,33.645878,-96.612181,Burger King,TX
1053,Fast food restaurants,Baldwin Park,US,34.084904,-117.965034,Burger King,CA
1054,Fast Food,Azusa,US,34.12867,-117.88797,Chick-Fil-A,CA
1055,Fast Food Restaurants,Azusa,US,34.12867,-117.88797,Chick-Fil-A,CA
1056,Fast Food,Homewood,US,41.569335,-87.636192,Taco Bell,IL
1057,Fast Food Restaurants,Arcadia,US,34.151796,-118.026629,Pizza Hut,CA
1058,Fast Food,Arcadia,US,34.108449,-118.025358,Pizza Hut,CA
1059,Fast Food Restaurant,Antioch,US,38.00562,-121.755602,Burger King,CA
1060,Fast Food Restaurants,Round Lake,US,42.379367,-88.090594,Taco Bell,IL
1061,Fast Food Restaurant,Rockford,US,42.242169,-88.979761,Taco Bell,IL
1062,Fast Food Restaurant,Richmond,US,42.481616,-88.306089,Taco Bell,IL
1063,Fast Food Restaurants,Richmond,US,42.481616,-88.306089,Taco Bell,IL
1064,Fast Food Restaurants,Peru,US,41.369912,-89.127509,Taco Bell,IL
1065,Fast Food Restaurant,Peru,US,41.369912,-89.127509,Taco Bell,IL
1066,Fast Food,Peoria,US,40.725904,-89.632557,Taco Bell,IL
1067,Fast Food Restaurants,Palos Hills,US,41.689687,-87.807139,Taco Bell,IL
1068,Fast Food Restaurants,Pekin,US,40.560185,-89.620775,Taco Bell,IL
1069,Fast Food Restaurant,Belton,US,34.582264,-82.47881,McDonald's,SC
1070,Fast Food,North Chicago,US,42.318766,-87.86647,Taco Bell,IL
1071,Fast Food,Normal,US,40.510327,-88.959485,Taco Bell,IL
1072,Fast Food Restaurant,Niles,US,42.017637,-87.806548,Taco Bell,IL
1073,Fast Food Restaurant,Morton,US,40.625831,-89.464451,Taco Bell,IL
1074,Fast Food,Agoura Hills,US,34.153826,-118.757244,Baskin-Robbins,CA
1075,Fast Food,Agoura Hills,US,34.15483,-118.78855,Ameci Pizza & Pasta,CA
1076,Fast Food Restaurants,Montgomery,US,41.71974,-88.319428,Taco Bell,IL
1077,Fast Food,Moline,US,41.466329,-90.507118,Taco Bell,IL
1078,Fast Food Restaurants,Jamestown,US,46.88957,-98.71822,Arby's,ND
1079,Fast Food Restaurants,Jessup,US,39.167616,-76.783963,McDonald's,MD
1080,Fast Food Restaurant,Joliet,US,41.57939,-88.165058,Taco Bell,IL
1081,Fast Food Restaurants,Fairbanks,US,64.84024,-147.71043,Ak Buffet,AK
1082,Fast Food,Glendale Heights,US,41.935996,-88.071188,Taco Bell,IL
1083,Fast Food,Freeport,US,42.272672,-89.63141,Taco Bell,IL
1084,Fast Food Restaurants,Freeport,US,42.272672,-89.63141,Taco Bell,IL
1085,Fast Food Restaurants,Fairbanks,US,64.84024,-147.71043,Pizza Hut,AK
1086,Fast Food Restaurant,Hanover,US,39.153002,-76.723817,McDonald's,MD
1087,Fast Food Restaurants,Kingman,US,35.212801,-114.035004,Pizza Hut,AZ
1088,Fast Food Restaurant and Burger Joint,Eagle River,US,61.331815,-149.565417,Carl's Jr,AK
1089,Fast Food Restaurant,Eagle River,US,61.331815,-149.565417,Carl's Jr,AK
1090,Fast Food,Gilbert,US,33.2626498,-111.7561972,Little Caesars Pizza,AZ
1091,Fast Food Restaurant,Eloy,US,32.806598,-111.67189,Arby's,AZ
1092,Fast Food Restaurant,Ellicott City,US,39.250777,-76.813101,McDonald's,MD
1093,Fast food restaurants,Elkton,US,39.635133,-75.805571,McDonald's,MD
1094,Fast Food Restaurants,Chandler,US,33.27772,-111.85887,Barro's Pizza,AZ
1095,Fast Food Restaurant,Dundalk,US,39.264906,-76.527427,McDonald's,MD
1096,Fast Food Restaurant Saint Helena,Dundalk,US,39.264906,-76.527427,McDonald's,MD
1097,Fast Food Restaurant,Crisfield,US,37.991003,-75.844143,McDonald's,MD
1098,Fast Food Restaurant,Columbia,US,39.185679,-76.843415,McDonald's,MD
1099,Fast Food Restaurants,Huntington Park,US,33.972702,-118.2106,Pizza Hut,CA
1100,Fast Food,Clarksville,US,39.210178,-76.937833,McDonald's,MD
1101,Fast Food Restaurant,Chestertown,US,39.225371,-76.070907,McDonald's,MD
1102,Fast Food Restaurant,Catonsville,US,39.284946,-76.759683,McDonald's,MD
1103,Fast Food Restaurant,Brooklyn,US,40.648476,-73.958572,KFC,NY
1104,Fast Food,Philadelphia,US,40.011978,-75.135868,KFC - Kentucky Fried Chicken,PA
1105,Fast Food Restaurant,Sebastopol,US,38.394035,-122.818689,McDonald's,CA
1106,Fast Food Restaurants,McKinney,US,33.158926,-96.680845,McDonald's,TX
1107,Fast Food Restaurants,Converse,US,29.497846,-98.320015,Long John Silver's,TX
1108,Fast Food Restaurants,South Padre Island,US,26.097551,-97.165667,Long John Silver's,TX
1109,Fast Food Restaurants,Shreveport,US,32.448789,-93.781072,Burger King,LA
1110,Fast Food Restaurants,Spring,US,30.022185,-95.520915,Long John Silver's,TX
1111,Fast Food Restaurants,Hemet,US,33.74898,-116.969505,Boys Burgers,CA
1112,Fast Food Restaurant,Corpus Christi,US,27.685067,-97.382946,Long John Silver's,TX
1113,Fast Food Restaurant,Alexandria,US,31.345107,-92.517004,Burger King,LA
1114,Fast food restaurants,Fitchburg,US,42.582414,-71.775218,Burger King,MA
1115,Fast Food Restaurants,Springfield,US,42.108163,-72.576647,Burger King,MA
1116,Fast Food Restaurants,Winnfield,US,31.936107,-92.653639,Burger King,LA
1117,Fast Food Restaurant,Bastrop,US,32.78127,-91.901043,Burger King,LA
1118,Fast Food Restaurant,Baton Rouge,US,30.385667,-91.064558,Burger King,LA
1119,Fast Food Restaurant,Shreveport,US,32.448172,-93.865242,Burger King,LA
1120,Fast food restaurants,Baton Rouge,US,30.433078,-91.057839,Burger King,LA
1121,Fast Food Restaurant,Baton Rouge,US,30.433078,-91.057839,Burger King,LA
1122,Fast Food Restaurant,Zachary,US,30.647977,-91.151824,Burger King,LA
1123,Fast Food,Fayetteville,US,35.07857,-78.940747,McDonald's,NC
1124,Fast Food Restaurants,Fayetteville,US,35.07857,-78.940747,McDonald's,NC
1125,Fast Food Restaurants,Port Allen,US,30.406769,-91.229842,Burger King,LA
1126,Fast Food Restaurant,Grand Rapids,US,42.842144,-85.624731,Taco Bell,MI
1127,Fast Food Restaurant,Opelousas,US,30.519384,-92.074994,Burger King,LA
1128,Fast Food Restaurants,New Iberia,US,29.968869,-91.835925,Burger King,LA
1129,Fast Food Restaurant,Bryant,US,34.621132,-92.498826,Arby's,AR
1130,Fast Food Restaurant,Hagerstown,US,39.691607,-77.738818,Burger King,MD
1131,Fast Food Restaurant,Hagerstown,US,39.626191,-77.767691,Burger King,MD
1132,Fast Food Restaurant,Hagerstown,US,39.600468,-77.729678,Burger King,MD
1133,Fast Food Restaurant and Burger Joint,Grantsville,US,39.690789,-79.103802,Burger King,MD
1134,Fast Food Restaurants,Cumberland,US,39.637928,-78.832937,Burger King,MD
1135,Fast Food Restaurants,Frostburg,US,39.642962,-78.909752,Burger King,MD
1136,Fast Food Restaurants,Windsor Mill,US,39.353322,-76.755754,Burger King,MD
1137,Fast Food Restaurant,Windsor Mill,US,39.353322,-76.755754,Burger King,MD
1138,Fast food restaurants,Rosedale,US,39.32338,-76.502491,Burger King,MD
1139,Fast Food Restaurant,Rosedale,US,39.32338,-76.502491,Burger King,MD
1140,Fast Food Restaurant,Catonsville,US,39.289591,-76.726646,Burger King,MD
1141,Fast Food Restaurants,Baltimore,US,39.297176,-76.529346,Burger King,MD
1142,Fast Food Restaurant,Havre de Grace,US,39.546763,-76.106205,Burger King,MD
1143,"Fast Food Restaurant, Burger Joint, and American Restaurant",Glen Burnie,US,39.135989,-76.597223,Burger King,MD
1144,Fast Food Restaurant,Silver Spring,US,39.05768,-77.084654,Burger King,MD
1145,Fast Food Restaurant,Hyattsville,US,38.939492,-76.906024,Burger King,MD
1146,Fast Food Restaurants,Hyattsville,US,38.984017,-76.975083,Burger King,MD
1147,Fast Food Restaurant,Hyattsville,US,38.984017,-76.975083,Burger King,MD
1148,Fast Food Restaurants,Mullins,US,34.199497,-79.257733,Baskin-Robbins,SC
1149,Fast Food,Las Vegas,US,36.158309,-115.162684,McDonald's,NV
1150,Fast Food,Sparks,US,39.527755,-119.701355,McDonald's,NV
1151,Fast Food Restaurant,North Las Vegas,US,36.239482,-115.160893,McDonald's,NV
1152,Fast Food Restaurant,Las Vegas,US,36.158558,-115.263132,McDonald's,NV
1153,Fast Food,Las Vegas,US,36.09383,-115.294615,McDonald's,NV
1154,Fast Food,Las Vegas,US,36.169828,-115.142841,McDonald's,NV
1155,Fast Food Restaurant and American Restaurant,Las Vegas,US,36.195232,-115.161299,McDonald's,NV
1156,Fast Food Restaurant,Las Vegas,US,36.195232,-115.161299,McDonald's,NV
1157,Fast Food Restaurants,Las Vegas,US,36.172774,-115.20044,McDonald's,NV
1158,Fast Food Restaurant Nellis Air Force Base,Las Vegas,US,36.236888,-115.061636,McDonald's,NV
1159,Fast Food Restaurant,Las Vegas,US,36.123133,-115.242839,McDonald's,NV
1160,Fast Food Restaurant and Burger Joint,North Las Vegas,US,36.188148,-115.115191,McDonald's,NV
1161,Fast Food Restaurants,Las Vegas,US,36.114851,-115.209048,McDonald's,NV
1162,Fast Food Restaurants,Las Vegas,US,36.100467,-115.224087,McDonald's,NV
1163,Fast Food Restaurant,Las Vegas,US,36.114523,-115.195934,McDonald's,NV
1164,Fast Food Restaurant,Las Vegas,US,36.119881,-115.138031,McDonald's,NV
1165,Fast Food Restaurants,Las Vegas,US,36.159167,-115.079606,McDonald's,NV
1166,Fast Food Restaurant,Las Vegas,US,36.164519,-115.06323,McDonald's,NV
1167,Fast Food Restaurants,Las Vegas,US,36.137324,-115.064924,McDonald's,NV
1168,Fast Food,Las Vegas,US,36.111142,-115.062752,McDonald's,NV
1169,Fast Food,Las Vegas,US,36.113844,-115.066665,McDonald's,NV
1170,Fast Food Restaurant,Las Vegas,US,36.113844,-115.066665,McDonald's,NV
1171,Fast Food Restaurants,Henderson,US,36.061115,-115.033495,McDonald's,NV
1172,Fast Food Restaurant,Boulder City,US,35.971334,-114.849553,McDonald's,NV
1173,Fast Food Restaurant,Kalispell,US,48.203448,-114.307145,Taco Bell,MT
1174,Fast Food Restaurant,Great Falls,US,47.521028,-111.308274,Taco Bell,MT
1175,Fast Food Restaurant,Pearl,US,32.282241,-90.118333,Taco Bell,MS
1176,Fast Food Restaurants,Clarksdale,US,34.189784,-90.577591,Taco Bell,MS
1177,Fast Food Restaurant,Urbana,US,40.116302,-88.220945,Taco Bell,IL
1178,Fast Food Restaurant,Yuma,US,32.697157,-114.624638,Taco Bell,AZ
1179,Fast Food Restaurants,Tucson,US,32.350373,-110.97579,Taco Bell,AZ
1180,Fast Food Restaurant and Mexican Restaurant,Tucson,US,32.356885,-111.091432,Taco Bell,AZ
1181,Fast Food,Tucson,US,32.286587,-110.964259,Taco Bell,AZ
1182,Fast Food Restaurants,Tucson,US,32.162055,-110.94266,Taco Bell,AZ
1183,Fast Food Restaurant,Tucson,US,32.207496,-110.857543,Taco Bell,AZ
1184,Fast Food Restaurants,Tucson,US,32.207496,-110.857543,Taco Bell,AZ
1185,Fast Food Restaurant,Tucson,US,32.250912,-110.918865,Taco Bell,AZ
1186,Fast Food,Tempe,US,33.363763,-111.911152,Taco Bell,AZ
1187,Fast Food Restaurant,Tempe,US,33.363763,-111.911152,Taco Bell,AZ
1188,Fast Food,Surprise,US,33.609206,-112.356741,Taco Bell,AZ
1189,Fast Food Restaurant,Scottsdale,US,33.537573,-111.885038,Taco Bell,AZ
1190,Fast Food Restaurant and Mexican Restaurant Paradise Valley,Scottsdale,US,33.613253,-111.926347,Taco Bell,AZ
1191,Fast Food Restaurants,Phoenix,US,33.40627,-111.978863,Taco Bell,AZ
1192,Fast Food Restaurant,Phoenix,US,33.639046,-112.149911,Taco Bell,AZ
1193,Fast Food,Haleyville,US,34.227995,-87.621764,Taco Bell,AL
1194,Fast Food Restaurant,Greenville,US,31.855389,-86.640842,Taco Bell,AL
1195,Fast Food Restaurant,Birmingham,US,33.557866,-86.889551,Taco Bell,AL
1196,Fast Food Restaurant,Green Bay,US,44.555863,-88.057722,Taco Bell,WI
1197,Fast Food Restaurants,Green Bay,US,44.555863,-88.057722,Taco Bell,WI
1198,Fast Food Restaurant,Green Bay,US,44.522663,-88.062164,Taco Bell,WI
1199,Fast Food Restaurants,De Pere,US,44.462654,-88.117323,Taco Bell,WI
1200,Fast Food Restaurant,Fond du Lac,US,43.783309,-88.412355,Taco Bell,WI
1201,Fast Food Restaurant,Taylor,US,42.256217,-83.241127,Burger King,MI
1202,Fast Food Restaurant and Burger Joint,Taylor,US,42.213722,-83.229223,Burger King,MI
1203,Fast Food Restaurant,Romulus,US,42.223662,-83.385421,Burger King,MI
1204,Fast Food Restaurant,Plymouth,US,42.395612,-83.485614,Burger King,MI
1205,Fast Food Restaurant,Dearborn,US,42.297904,-83.284666,Burger King,MI
1206,Fast Food Restaurants,Ann Arbor,US,42.284725,-83.838496,Burger King,MI
1207,Fast Food Restaurant,Saint Clair Shores,US,42.472813,-82.905312,Burger King,MI
1208,Fast Food Restaurants,Palmyra,US,44.829194,-69.296653,Burger King,ME
1209,Fast Food Restaurant and Burger Joint,Presque Isle,US,46.700549,-68.010114,Burger King,ME
1210,Fast Food Restaurants,Ellsworth,US,44.538525,-68.415028,Burger King,ME
1211,Fast Food Restaurant,Ellsworth,US,44.538525,-68.415028,Burger King,ME
1212,Fast Food Restaurant,Sanford,US,43.419098,-70.755742,Burger King,ME
1213,Fast Food Restaurants,Minneapolis,US,44.948776,-93.28851,Topper's Pizza,MN
1214,Fast Food Restaurant,Cornersville,US,35.30936,-86.87959,McDonald's,TN
1215,Fast Food,Cornersville,US,35.30936,-86.87959,McDonald's,TN
1216,Fast Food Restaurant and Burger Joint,Cornersville,US,35.30936,-86.87959,McDonald's,TN
1217,Fast Food Restaurant and Food,Dickson,US,36.02263,-87.33807,McDonald's,TN
1218,Fast Food Restaurant,Newnan,US,33.38493,-84.78484,McDonald's,GA
1219,Fast Food Restaurant and Burger Joint,Newnan,US,33.37642,-84.75432,McDonald's,GA
1220,Fast Food Restaurant,Morrow,US,33.56206,-84.320597,McDonald's,GA
1221,Fast Food Restaurants,Milledgeville,US,33.074009,-83.225008,McDonald's,GA
1222,Fast Food,Milledgeville,US,33.11724,-83.2647,McDonald's,GA
1223,Fast Food Restaurant and Burger Joint,Metter,US,32.37662,-82.06306,McDonald's,GA
1224,Fast Food,McDonough,US,33.42853,-84.179288,McDonald's,GA
1225,Fast Food Restaurants,Augusta,US,33.507432,-82.142786,McDonald's,GA
1226,Fast Food Restaurant,Augusta,US,33.507432,-82.142786,McDonald's,GA
1227,Fast Food Restaurant,Marietta,US,34.022903,-84.426488,McDonald's,GA
1228,Fast Food Restaurant East Cobb,Marietta,US,33.980562,-84.463039,McDonald's,GA
1229,Fast Food Restaurants,Marietta,US,33.871264,-84.467985,McDonald's,GA
1230,Fast Food Restaurant,Manchester,US,32.853488,-84.617255,McDonald's,GA
1231,Fast Food,Macon,US,32.834019,-83.636248,McDonald's,GA
1232,Fast Food Restaurant and Burger Joint,Macon,US,32.900297,-83.686901,McDonald's,GA
1233,Fast Food Restaurant,Macon,US,32.811978,-83.723079,McDonald's,GA
1234,Fast Food Restaurant,Lithonia,US,33.702364,-84.168463,McDonald's,GA
1235,Fast Food Restaurant,Lavonia,US,34.443451,-83.114122,McDonald's,GA
1236,Fast Food Restaurant,Kennesaw,US,34.060645,-84.592795,McDonald's,GA
1237,Fast Food Restaurants,League City,US,29.468446,-95.092203,Panda Express,TX
1238,Chinese Restaurant and Fast Food Restaurant,Fort Worth,US,32.633972,-97.369888,Panda Express,TX
1239,Fast Food,Houston,US,29.677586,-95.642733,Panda Express,TX
1240,Fast Food Restaurants,Dallas,US,32.891535,-97.042423,Panda Express,TX
1241,Fast Food Restaurant,Austin,US,30.403622,-97.672028,Panda Express,TX
1242,Chinese Restaurant and Fast Food Restaurant,Austin,US,30.403622,-97.672028,Panda Express,TX
1243,Fast Food,Austin,US,30.418152,-97.702115,Panda Express,TX
1244,Fast Food Restaurants,Albuquerque,US,35.135091,-106.611527,Panda Express,NM
1245,Fast Food Restaurants,Santa Fe,US,35.692564,-105.947814,Panda Express,NM
1246,Fast Food,Parker,US,39.511715,-104.765372,Panda Express,CO
1247,Fast Food Restaurant,Denver,US,39.712137,-105.132908,Panda Express,CO
1248,Chinese Restaurant and Fast Food Restaurant Union Square,Denver,US,39.712137,-105.132908,Panda Express,CO
1249,Fast Food Restaurants,West Hills,US,34.189144,-118.64134,Panda Express,CA
1250,Fast Food,Thousand Oaks,US,34.153938,-118.796949,Panda Express,CA
1251,Fast Food Restaurants,Van Nuys,US,34.172107,-118.447705,Panda Express,CA
1252,Fast Food,Torrance,US,33.804998,-118.350671,Panda Express,CA
1253,Fast Food Restaurant and Burger Joint,Puyallup,US,47.098225,-122.292808,Wendy's,WA
1254,Fast Food Restaurant,Lakewood,US,47.161203,-122.484604,Wendy's,WA
1255,Fast Food Restaurants,Saint Joseph,US,39.735438,-94.801106,Taco Bell,MO
1256,Fast Food,Saint Charles,US,38.787706,-90.512078,Taco Bell,MO
1257,Fast Food,Perryville,US,37.711784,-89.890735,Taco Bell,MO
1258,Fast Food Restaurants,Pacific,US,38.484707,-90.760092,Taco Bell,MO
1259,Fast Food Restaurant,Saint Louis,US,38.690958,-90.389834,Taco Bell,MO
1260,Fast Food Restaurant and Mexican Restaurant,Monett,US,36.913555,-93.913564,Taco Bell,MO
1261,Fast Food Restaurant,Monett,US,36.913555,-93.913564,Taco Bell,MO
1262,Fast Food Restaurants,Mount Vernon,US,37.094525,-93.814544,Taco Bell,MO
1263,Fast Food Restaurants,Maryland Heights,US,38.715528,-90.452975,Taco Bell,MO
1264,Fast Food Restaurant,Kirksville,US,40.185961,-92.571955,Taco Bell,MO
1265,Fast Food,Kansas City,US,39.246764,-94.574317,Taco Bell,MO
1266,Fast Food Restaurants,Kansas City,US,39.068408,-94.583579,Taco Bell,MO
1267,Fast Food,Jefferson City,US,38.554882,-92.19907,Taco Bell,MO
1268,Fast Food,Hazelwood,US,38.786821,-90.351463,Taco Bell,MO
1269,Fast Food Restaurant and Mexican Restaurant,Fenton,US,38.513119,-90.441099,Taco Bell,MO
1270,Fast Food Restaurants,Florissant,US,38.772846,-90.305189,Taco Bell,MO
1271,Fast Food Restaurants,Eureka,US,38.504591,-90.643431,Taco Bell,MO
1272,Fast Food Restaurant,Park Hills,US,37.874667,-90.512367,Taco Bell,MO
1273,Fast Food Restaurant,Farmington,US,37.7911,-90.432989,Taco Bell,MO
1274,Fast Food Restaurant,Dexter,US,36.803572,-89.980024,Taco Bell,MO
1275,Fast Food Restaurant,Columbia,US,38.964735,-92.334883,Taco Bell,MO
1276,Fast Food Restaurant,Columbia,US,38.947002,-92.334374,Taco Bell,MO
1277,Fast Food Restaurant,Columbia,US,38.909489,-92.33195,Taco Bell,MO
1278,Fast Food Restaurant,Columbia,US,38.963799,-92.28857,Taco Bell,MO
1279,Fast Food,Littleton,US,39.56643,-104.984059,Burger King,CO
1280,Fast Food Restaurants,Livingston,US,36.376645,-85.338262,Arby's,TN
1281,Fast Food,Phoenix,US,33.524418,-112.116097,Burger King,AZ
1282,Fast Food Restaurant,Phoenix,US,33.524418,-112.116097,Burger King,AZ
1283,Fast Food Restaurant,Knoxville,US,36.027337,-83.928196,Arby's,TN
1284,Fast Food Restaurant,Knoxville,US,35.904871,-84.142712,Arby's,TN
1285,Fast Food,Knoxville,US,36.004299,-84.019892,Arby's,TN
1286,"Fast Food Restaurant, American Restaurant, and Sandwich Place",Mount Juliet,US,36.174747,-86.5126,Arby's,TN
1287,Fast Food Restaurants,Jonesborough,US,36.300038,-82.469068,Arby's,TN
1288,Fast Food Restaurant,Jackson,US,35.657745,-88.850925,Arby's,TN
1289,Fast Food,Jackson,US,35.681656,-88.856849,Arby's,TN
1290,Fast Food Restaurants,Hixson,US,35.199009,-85.16108,Arby's,TN
1291,"Fast Food Restaurant, American Restaurant, and Sandwich Place",Hixson,US,35.199009,-85.16108,Arby's,TN
1292,"Fast Food Restaurant, American Restaurant, and Sandwich Place",Greeneville,US,36.170171,-82.819643,Arby's,TN
1293,Fast Food Restaurant,Greeneville,US,36.170171,-82.819643,Arby's,TN
1294,"Fast Food Restaurant, American Restaurant, and Sandwich Place",Dickson,US,36.021612,-87.3397,Arby's,TN
1295,"Fast Food Restaurant, American Restaurant, and Sandwich Place",Columbia,US,35.643902,-86.891575,Arby's,TN
1296,Fast Food Restaurant,Chattanooga,US,35.009665,-85.220524,Arby's,TN
1297,Fast Food,Chattanooga,US,35.040875,-85.152459,Arby's,TN
1298,Fast Food Restaurants,Memphis,US,35.205193,-89.795492,Arby's,TN
1299,"Fast Food Restaurant, Sandwich Place, and American Restaurant",Sioux Falls,US,43.602681,-96.7106,Arby's,SD
1300,"Fast Food Restaurant, Sandwich Place, and American Restaurant",Rapid City,US,44.096701,-103.15038,Arby's,SD
1301,"Fast Food Restaurant, American Restaurant, and Sandwich Place",Summerville,US,33.023425,-80.172055,Arby's,SC
1302,Fast Food Restaurants,Spartanburg,US,34.950739,-81.918285,Arby's,SC
1303,Fast Food Restaurant and Ice Cream Shop,Brighton,US,39.986507,-104.797381,Dairy Queen,CO
1304,Fast Food Restaurants,Bedford,US,32.836537,-97.131662,Einstein Bros Bagels,TX
1305,Fast Food Restaurants,Seaford,US,38.64614,-75.596986,Dairy Queen,DE
1306,Fast Food Restaurant,Redding,US,40.582248,-122.354262,Dairy Queen,CA
1307,Fast Food,Westminster,US,33.725075,-117.988953,Dairy Queen,CA
1308,Fast Food,San Diego,US,32.768495,-117.148562,Dairy Queen,CA
1309,Fast Food Restaurants,Gonzales,US,36.513944,-121.437059,Dairy Queen,CA
1310,Fast Food,Belmont,US,37.519866,-122.275381,Panda Express,CA
1311,Fast Food,Littleton,US,39.571848,-104.988563,Dairy Queen,CO
1312,Fast Food,Denver,US,39.702302,-104.940606,Dairy Queen,CO
1313,Fast Food Restaurants,Minneapolis,US,44.969094,-93.263507,Band Box Diner,MN
1314,Fast food restaurants,Flint,US,42.990574,-83.65351,Burger King,MI
1315,Fast food restaurants,Flint,US,43.088438,-83.694148,Burger King,MI
1316,Fast Food Restaurant,Durant,US,33.991121,-96.377859,McDonald's,OK
1317,Fast Food Restaurant,Hartland,US,42.633676,-83.746238,Burger King,MI
1318,Sandwiches / Fast Food / American,Sachse,US,32.978659,-96.591288,Subway,TX
1319,Fast Food Restaurants,Arlington,US,32.643919,-97.075422,Subway,TX
1320,Fast Food Restaurant,Waterford,US,42.691102,-83.38723,Burger King,MI
1321,Fast Food Restaurants,Wagoner,US,35.956703,-95.395267,McDonald's,OK
1322,Fast Food Restaurants,Cuero,US,29.091554,-97.284129,Subway,TX
